{
"type": "FeatureCollection",
"name": "campings_seed",
"crs": { "type": "name", "properties": { "name": "urn:ogc:def:crs:OGC:1.3:CRS84" } },
"features": [
{ "type": "Feature", "properties": { "osm_id": "243024186", "picnic_table": null, "toilets": null, "fireplace": null, "website": null, "fee": null, "description": null, "name": null }, "geometry": { "type": "Point", "coordinates": [ 28.75955, 55.32165 ] } },
{ "type": "Feature", "properties": { "osm_id": "255020580", "picnic_table": null, "toilets": null, "fireplace": null, "website": null, "fee": null, "description": null, "name": "база Віндсерфінгу" }, "geometry": { "type": "Point", "coordinates": [ 27.3679205, 53.9545385 ] } },
{ "type": "Feature", "properties": { "osm_id": "306065066", "picnic_table": null, "toilets": null, "fireplace": null, "website": null, "fee": null, "description": null, "name": "Дубы" }, "geometry": { "type": "Point", "coordinates": [ 27.15777, 55.69287 ] } },
{ "type": "Feature", "properties": { "osm_id": "306065079", "picnic_table": null, "toilets": null, "fireplace": null, "website": null, "fee": "yes", "description": "Вместимость: 40 человек  Стоимость: 4,00 BYN с человека в сутки (3,50 BYN при оплате за 11 и более дней) . Береговая линия с песчаным дном. Дрова необходимо приобретать заранее.  Размещение разрешено без предварительной брони. ", "name": "Будзілы" }, "geometry": { "type": "Point", "coordinates": [ 27.0962237, 55.716412 ] } },
{ "type": "Feature", "properties": { "osm_id": "306065100", "picnic_table": null, "toilets": null, "fireplace": null, "website": null, "fee": null, "description": null, "name": "Вушына" }, "geometry": { "type": "Point", "coordinates": [ 27.08482, 55.59468 ] } },
{ "type": "Feature", "properties": { "osm_id": "306065129", "picnic_table": null, "toilets": null, "fireplace": null, "website": "http://braslavpark.by/rybalks/pokupka-putevok-online", "fee": null, "description": null, "name": "т/с Ручай" }, "geometry": { "type": "Point", "coordinates": [ 27.1025537, 55.7606612 ] } },
{ "type": "Feature", "properties": { "osm_id": "306065171", "picnic_table": null, "toilets": null, "fireplace": null, "website": null, "fee": null, "description": null, "name": "Пешчная" }, "geometry": { "type": "Point", "coordinates": [ 27.03993, 55.58009 ] } },
{ "type": "Feature", "properties": { "osm_id": "306065182", "picnic_table": null, "toilets": null, "fireplace": null, "website": null, "fee": null, "description": null, "name": "Дукельская Лука" }, "geometry": { "type": "Point", "coordinates": [ 27.01753, 55.58601 ] } },
{ "type": "Feature", "properties": { "osm_id": "306065184", "picnic_table": null, "toilets": null, "fireplace": null, "website": null, "fee": null, "description": null, "name": "Панцялееўскі Рог стаянка агульнага тыпу" }, "geometry": { "type": "Point", "coordinates": [ 27.0238918, 55.685484 ] } },
{ "type": "Feature", "properties": { "osm_id": "306065219", "picnic_table": null, "toilets": null, "fireplace": null, "website": null, "fee": null, "description": null, "name": "т/с Болта (заказная на 10чал.)" }, "geometry": { "type": "Point", "coordinates": [ 26.96345, 55.59975 ] } },
{ "type": "Feature", "properties": { "osm_id": "306066023", "picnic_table": null, "toilets": null, "fireplace": null, "website": null, "fee": null, "description": null, "name": "Аўтакемпінг «Нарач»" }, "geometry": { "type": "Point", "coordinates": [ 26.7238473, 54.8267743 ] } },
{ "type": "Feature", "properties": { "osm_id": "306066826", "picnic_table": null, "toilets": null, "fireplace": null, "website": null, "fee": null, "description": null, "name": "Летнік" }, "geometry": { "type": "Point", "coordinates": [ 29.3727538, 55.7196063 ] } },
{ "type": "Feature", "properties": { "osm_id": "427733167", "picnic_table": null, "toilets": null, "fireplace": null, "website": null, "fee": null, "description": null, "name": "Лясная Казка" }, "geometry": { "type": "Point", "coordinates": [ 23.7954028, 53.6812657 ] } },
{ "type": "Feature", "properties": { "osm_id": "747013229", "picnic_table": null, "toilets": null, "fireplace": null, "website": null, "fee": null, "description": null, "name": null }, "geometry": { "type": "Point", "coordinates": [ 27.2131484, 55.7678384 ] } },
{ "type": "Feature", "properties": { "osm_id": "1266956438", "picnic_table": null, "toilets": null, "fireplace": null, "website": null, "fee": null, "description": null, "name": null }, "geometry": { "type": "Point", "coordinates": [ 27.8303974, 53.9666559 ] } },
{ "type": "Feature", "properties": { "osm_id": "1544242694", "picnic_table": null, "toilets": null, "fireplace": null, "website": null, "fee": null, "description": null, "name": "Антанізберг" }, "geometry": { "type": "Point", "coordinates": [ 26.7410905, 54.9063496 ] } },
{ "type": "Feature", "properties": { "osm_id": "1544242699", "picnic_table": null, "toilets": null, "fireplace": "yes", "website": null, "fee": null, "description": null, "name": "Глыбокі Ручай" }, "geometry": { "type": "Point", "coordinates": [ 26.5862377, 54.9494577 ] } },
{ "type": "Feature", "properties": { "osm_id": "1544242709", "picnic_table": null, "toilets": null, "fireplace": null, "website": null, "fee": "yes", "description": null, "name": "Турыстычная стаянка «Цюкшы-2»" }, "geometry": { "type": "Point", "coordinates": [ 26.607356, 54.9726187 ] } },
{ "type": "Feature", "properties": { "osm_id": "1544242710", "picnic_table": null, "toilets": null, "fireplace": null, "website": null, "fee": null, "description": null, "name": "Качаргі" }, "geometry": { "type": "Point", "coordinates": [ 26.9093503, 54.8449379 ] } },
{ "type": "Feature", "properties": { "osm_id": "1544242713", "picnic_table": null, "toilets": null, "fireplace": null, "website": null, "fee": "yes", "description": null, "name": "Турыстычная стаянка «Белае»" }, "geometry": { "type": "Point", "coordinates": [ 26.8661708, 54.8370229 ] } },
{ "type": "Feature", "properties": { "osm_id": "1544242717", "picnic_table": null, "toilets": null, "fireplace": null, "website": null, "fee": "yes", "description": null, "name": "Турыстычная стаянка «Цюкшы-3»" }, "geometry": { "type": "Point", "coordinates": [ 26.6163748, 54.9686706 ] } },
{ "type": "Feature", "properties": { "osm_id": "1738536359", "picnic_table": null, "toilets": null, "fireplace": null, "website": null, "fee": null, "description": null, "name": "РУП ВА «Беларуснафта». Турзлёт." }, "geometry": { "type": "Point", "coordinates": [ 30.2364209, 52.5500456 ] } },
{ "type": "Feature", "properties": { "osm_id": "1792002205", "picnic_table": null, "toilets": null, "fireplace": null, "website": null, "fee": null, "description": null, "name": null }, "geometry": { "type": "Point", "coordinates": [ 27.7675695, 54.4433837 ] } },
{ "type": "Feature", "properties": { "osm_id": "1800500936", "picnic_table": null, "toilets": null, "fireplace": null, "website": null, "fee": null, "description": null, "name": null }, "geometry": { "type": "Point", "coordinates": [ 30.6896915, 53.8333988 ] } },
{ "type": "Feature", "properties": { "osm_id": "1844355640", "picnic_table": null, "toilets": null, "fireplace": null, "website": null, "fee": null, "description": null, "name": "База адпачынку «Браслаўскія азёры»" }, "geometry": { "type": "Point", "coordinates": [ 27.0726875, 55.6155044 ] } },
{ "type": "Feature", "properties": { "osm_id": "2365915846", "picnic_table": null, "toilets": null, "fireplace": null, "website": null, "fee": null, "description": null, "name": "Аграсядзіба «Вікторыя»" }, "geometry": { "type": "Point", "coordinates": [ 27.796866, 54.426082 ] } },
{ "type": "Feature", "properties": { "osm_id": "2405177519", "picnic_table": null, "toilets": null, "fireplace": null, "website": null, "fee": null, "description": null, "name": "Турстаянка «Турцыя»" }, "geometry": { "type": "Point", "coordinates": [ 27.0790439, 55.711668 ] } },
{ "type": "Feature", "properties": { "osm_id": "2406904864", "picnic_table": null, "toilets": null, "fireplace": null, "website": null, "fee": null, "description": null, "name": "стаянка Шчара" }, "geometry": { "type": "Point", "coordinates": [ 24.7867682, 53.424956 ] } },
{ "type": "Feature", "properties": { "osm_id": "2500362498", "picnic_table": null, "toilets": null, "fireplace": null, "website": null, "fee": null, "description": null, "name": "Лагер пілігрымаў" }, "geometry": { "type": "Point", "coordinates": [ 27.4417018, 54.7935241 ] } },
{ "type": "Feature", "properties": { "osm_id": "2961332935", "picnic_table": null, "toilets": null, "fireplace": null, "website": null, "fee": null, "description": null, "name": "Турстаянка «Юбілейная»" }, "geometry": { "type": "Point", "coordinates": [ 27.0386624, 55.7162767 ] } },
{ "type": "Feature", "properties": { "osm_id": "2961332939", "picnic_table": null, "toilets": null, "fireplace": null, "website": "https://www.braslavpark.by", "fee": "yes", "description": null, "name": "т/с Выселкі (заказная на 8чал.)" }, "geometry": { "type": "Point", "coordinates": [ 27.0861208, 55.7160596 ] } },
{ "type": "Feature", "properties": { "osm_id": "3498619651", "picnic_table": null, "toilets": null, "fireplace": null, "website": null, "fee": null, "description": null, "name": "Днепрык" }, "geometry": { "type": "Point", "coordinates": [ 30.1289355, 52.396981 ] } },
{ "type": "Feature", "properties": { "osm_id": "3572081047", "picnic_table": null, "toilets": null, "fireplace": null, "website": null, "fee": null, "description": null, "name": "Месца для адпачынку" }, "geometry": { "type": "Point", "coordinates": [ 30.1194247, 53.0719714 ] } },
{ "type": "Feature", "properties": { "osm_id": "3635442557", "picnic_table": null, "toilets": null, "fireplace": null, "website": null, "fee": null, "description": null, "name": null }, "geometry": { "type": "Point", "coordinates": [ 27.6620249, 54.0740433 ] } },
{ "type": "Feature", "properties": { "osm_id": "3664359104", "picnic_table": null, "toilets": null, "fireplace": null, "website": "https://braslavpark.by/otdykh-i-turizm/turstoyanki/zakazniye/albenovskoe/", "fee": "yes", "description": null, "name": "Альбенаўская" }, "geometry": { "type": "Point", "coordinates": [ 26.8829473, 55.4227683 ] } },
{ "type": "Feature", "properties": { "osm_id": "3664474516", "picnic_table": null, "toilets": null, "fireplace": null, "website": "https://braslavpark.by/otdykh-i-turizm/turstoyanki/zakazniye/albenovskoe/", "fee": "yes", "description": null, "name": "Бекешкі" }, "geometry": { "type": "Point", "coordinates": [ 26.8761412, 55.4242745 ] } },
{ "type": "Feature", "properties": { "osm_id": "3664474517", "picnic_table": null, "toilets": null, "fireplace": null, "website": "https://braslavpark.by/by/otdykh-i-turizm/turstoyanki/zakazniye/albenovskoe/", "fee": "yes", "description": "(заказная на 12чел.)", "name": "Дубок" }, "geometry": { "type": "Point", "coordinates": [ 26.8147562, 55.4216661 ] } },
{ "type": "Feature", "properties": { "osm_id": "3664474518", "picnic_table": null, "toilets": null, "fireplace": null, "website": null, "fee": null, "description": "(заказная на 8чел.)", "name": "т/с Прылаўка 1" }, "geometry": { "type": "Point", "coordinates": [ 26.7993027, 55.3982742 ] } },
{ "type": "Feature", "properties": { "osm_id": "3664474523", "picnic_table": null, "toilets": null, "fireplace": null, "website": null, "fee": null, "description": null, "name": "т/с Барок (заказная на 8чал.)" }, "geometry": { "type": "Point", "coordinates": [ 27.0177002, 55.680557 ] } },
{ "type": "Feature", "properties": { "osm_id": "3664477238", "picnic_table": null, "toilets": null, "fireplace": null, "website": "https://www.braslavpark.by", "fee": "yes", "description": null, "name": "т/с Перавалока (заказная на 8чал.)" }, "geometry": { "type": "Point", "coordinates": [ 27.0875851, 55.7217913 ] } },
{ "type": "Feature", "properties": { "osm_id": "3664477240", "picnic_table": null, "toilets": null, "fireplace": null, "website": null, "fee": null, "description": null, "name": "т/с Ельна-1" }, "geometry": { "type": "Point", "coordinates": [ 27.012038, 55.6700656 ] } },
{ "type": "Feature", "properties": { "osm_id": "3664477241", "picnic_table": null, "toilets": null, "fireplace": null, "website": null, "fee": null, "description": null, "name": "т/с Ельна-2" }, "geometry": { "type": "Point", "coordinates": [ 27.0135655, 55.6709384 ] } },
{ "type": "Feature", "properties": { "osm_id": "3664477242", "picnic_table": null, "toilets": null, "fireplace": null, "website": null, "fee": "yes", "description": "(заказная на 8чел.)", "name": "т / с Абсерваторыя-2" }, "geometry": { "type": "Point", "coordinates": [ 27.0625923, 55.7166018 ] } },
{ "type": "Feature", "properties": { "osm_id": "3664477244", "picnic_table": null, "toilets": null, "fireplace": null, "website": null, "fee": null, "description": null, "name": "т/с Чарнішкі (заказная на 25 чал.)" }, "geometry": { "type": "Point", "coordinates": [ 27.0153586, 55.7121665 ] } },
{ "type": "Feature", "properties": { "osm_id": "3664477246", "picnic_table": null, "toilets": null, "fireplace": null, "website": null, "fee": null, "description": null, "name": "Бярозы-1 (заказная на 10чал.)" }, "geometry": { "type": "Point", "coordinates": [ 27.0742398, 55.7084235 ] } },
{ "type": "Feature", "properties": { "osm_id": "3664477247", "picnic_table": null, "toilets": null, "fireplace": null, "website": null, "fee": null, "description": null, "name": "Бярозы-2 (заказная на 8чал.)" }, "geometry": { "type": "Point", "coordinates": [ 27.0744115, 55.7086653 ] } },
{ "type": "Feature", "properties": { "osm_id": "3664477252", "picnic_table": null, "toilets": null, "fireplace": null, "website": null, "fee": null, "description": null, "name": "т/с Кірылаўка (заказная на 10чал.)" }, "geometry": { "type": "Point", "coordinates": [ 27.1074295, 55.7279777 ] } },
{ "type": "Feature", "properties": { "osm_id": "3664477253", "picnic_table": null, "toilets": null, "fireplace": null, "website": "https://braslavpark.by/otdykh-i-turizm/turstoyanki/zakazniye/medvedno/", "fee": "yes", "description": null, "name": "Мядзведна-1 (заказная тур. стаянка)" }, "geometry": { "type": "Point", "coordinates": [ 27.2379752, 55.7652806 ] } },
{ "type": "Feature", "properties": { "osm_id": "3664477255", "picnic_table": null, "toilets": null, "fireplace": null, "website": null, "fee": null, "description": null, "name": "т/с Туніс (заказная на 8чал.)" }, "geometry": { "type": "Point", "coordinates": [ 27.0803754, 55.7113029 ] } },
{ "type": "Feature", "properties": { "osm_id": "3664477256", "picnic_table": null, "toilets": null, "fireplace": null, "website": "https://braslavpark.by/otdykh-i-turizm/turstoyanki/zakazniye/uklya/#Kariby_uk", "fee": "yes", "description": "Заказная туристическая стоянка расположена на поляне рядом с сосновым лесом у озера Укля. Оснащение: беседка, баня, кострище с лавками, лестница и пирсом для подхода к воде, навес для дров, туалет и мусоросборник.", "name": "Карыбы (заказная турстаянка)" }, "geometry": { "type": "Point", "coordinates": [ 27.3411521, 55.6003726 ] } },
{ "type": "Feature", "properties": { "osm_id": "3664477257", "picnic_table": null, "toilets": null, "fireplace": null, "website": "https://braslavpark.by/otdykh-i-turizm/turstoyanki/zakazniye/uklya/#Marok_uk", "fee": "yes", "description": "Заказная туристическая стоянка расположена на возвышенности у озера Укля в смешанном лесу (в зоне видимости турстоянка Ямайка) Оснащена: беседкой, баней, мангалом, навесом для дров, туалетом, кострищем с лавками.", "name": "Марока (заказная турстаянка)" }, "geometry": { "type": "Point", "coordinates": [ 27.3451561, 55.6001973 ] } },
{ "type": "Feature", "properties": { "osm_id": "3664477258", "picnic_table": null, "toilets": null, "fireplace": null, "website": "https://braslavpark.by/otdykh-i-turizm/turstoyanki/zakazniye/uklya/#Miami_uk", "fee": "yes", "description": "Заказная туристическая стоянка расположена на берегу озера Укля, по берегу растут деревья, рядом полянка (в зоне видимости турстоянка Фиджи) Оснащена: беседкой, навесом для дров, туалетом, кострищем с лавками.", "name": "Маямі (заказная турстаянка)" }, "geometry": { "type": "Point", "coordinates": [ 27.3273037, 55.6018843 ] } },
{ "type": "Feature", "properties": { "osm_id": "3664477259", "picnic_table": null, "toilets": null, "fireplace": null, "website": "https://braslavpark.by/otdykh-i-turizm/turstoyanki/zakazniye/uklya/#Fiji_uk", "fee": "yes", "description": "Заказная туристическая стоянка расположена на полянке берега озера Укля, по берегу растут деревья (в зоне видимости турстоянка Майами) Оснащена: беседкой, навесом для дров, туалетом, кострищем с лавками.", "name": "Фіджы (заказная турстаянка на 8чал.)" }, "geometry": { "type": "Point", "coordinates": [ 27.3254414, 55.6019451 ] } },
{ "type": "Feature", "properties": { "osm_id": "3664477260", "picnic_table": null, "toilets": null, "fireplace": null, "website": "https://braslavpark.by/otdykh-i-turizm/turstoyanki/zakazniye/uklya/#Jamayka_uk", "fee": "yes", "description": "Заказная туристическая стоянка расположена на возвышенности у озера Укля в смешанном лесу.(в зоне видимости турстоянка Марокко) Оснащена: беседкой, навесом для дров, туалетом, кострищем с лавками.", "name": "т/с Ямайка (заказная на 8чал.)" }, "geometry": { "type": "Point", "coordinates": [ 27.3441856, 55.600209 ] } },
{ "type": "Feature", "properties": { "osm_id": "3664477261", "picnic_table": null, "toilets": null, "fireplace": null, "website": null, "fee": null, "description": null, "name": "т/с Прылаўка-2" }, "geometry": { "type": "Point", "coordinates": [ 26.7982062, 55.3934563 ] } },
{ "type": "Feature", "properties": { "osm_id": "3675574056", "picnic_table": null, "toilets": null, "fireplace": null, "website": null, "fee": null, "description": null, "name": null }, "geometry": { "type": "Point", "coordinates": [ 30.2888178, 53.7788892 ] } },
{ "type": "Feature", "properties": { "osm_id": "3688475268", "picnic_table": null, "toilets": null, "fireplace": null, "website": null, "fee": null, "description": null, "name": "т/с Стругалапы" }, "geometry": { "type": "Point", "coordinates": [ 26.8215698, 54.9357028 ] } },
{ "type": "Feature", "properties": { "osm_id": "3688480583", "picnic_table": null, "toilets": null, "fireplace": null, "website": null, "fee": null, "description": null, "name": "т/с Расохі" }, "geometry": { "type": "Point", "coordinates": [ 26.8715548, 54.9676233 ] } },
{ "type": "Feature", "properties": { "osm_id": "3688489222", "picnic_table": null, "toilets": null, "fireplace": null, "website": null, "fee": null, "description": null, "name": "Канькова" }, "geometry": { "type": "Point", "coordinates": [ 26.5536541, 54.7080076 ] } },
{ "type": "Feature", "properties": { "osm_id": "3688491447", "picnic_table": null, "toilets": null, "fireplace": null, "website": null, "fee": null, "description": null, "name": "Турыстычная стаянка «Балдук»" }, "geometry": { "type": "Point", "coordinates": [ 26.4097861, 54.9746946 ] } },
{ "type": "Feature", "properties": { "osm_id": "3688496584", "picnic_table": null, "toilets": null, "fireplace": null, "website": null, "fee": null, "description": null, "name": "т/с Шырокі Роў" }, "geometry": { "type": "Point", "coordinates": [ 26.5849813, 54.7118611 ] } },
{ "type": "Feature", "properties": { "osm_id": "3688503325", "picnic_table": null, "toilets": null, "fireplace": null, "website": null, "fee": null, "description": null, "name": "т/с Воўчына" }, "geometry": { "type": "Point", "coordinates": [ 26.8690295, 55.0063585 ] } },
{ "type": "Feature", "properties": { "osm_id": "3889057071", "picnic_table": null, "toilets": null, "fireplace": null, "website": null, "fee": null, "description": null, "name": null }, "geometry": { "type": "Point", "coordinates": [ 26.328497, 53.7127175 ] } },
{ "type": "Feature", "properties": { "osm_id": "4032719558", "picnic_table": null, "toilets": null, "fireplace": null, "website": null, "fee": null, "description": "Место для палатки", "name": null }, "geometry": { "type": "Point", "coordinates": [ 23.7939407, 53.7427216 ] } },
{ "type": "Feature", "properties": { "osm_id": "4063074444", "picnic_table": null, "toilets": null, "fireplace": null, "website": null, "fee": null, "description": null, "name": null }, "geometry": { "type": "Point", "coordinates": [ 29.7783351, 54.1644566 ] } },
{ "type": "Feature", "properties": { "osm_id": "4171748689", "picnic_table": null, "toilets": null, "fireplace": null, "website": null, "fee": null, "description": null, "name": null }, "geometry": { "type": "Point", "coordinates": [ 26.8559041, 54.4073565 ] } },
{ "type": "Feature", "properties": { "osm_id": "4214384098", "picnic_table": null, "toilets": null, "fireplace": null, "website": null, "fee": null, "description": null, "name": "дамба" }, "geometry": { "type": "Point", "coordinates": [ 27.5011013, 52.7364815 ] } },
{ "type": "Feature", "properties": { "osm_id": "4221907600", "picnic_table": null, "toilets": null, "fireplace": null, "website": null, "fee": null, "description": null, "name": "Кемпінг" }, "geometry": { "type": "Point", "coordinates": [ 28.5411328, 55.115021 ] } },
{ "type": "Feature", "properties": { "osm_id": "4223987295", "picnic_table": null, "toilets": null, "fireplace": null, "website": null, "fee": null, "description": null, "name": null }, "geometry": { "type": "Point", "coordinates": [ 23.8557336, 53.8063157 ] } },
{ "type": "Feature", "properties": { "osm_id": "4226872389", "picnic_table": null, "toilets": null, "fireplace": null, "website": null, "fee": null, "description": null, "name": null }, "geometry": { "type": "Point", "coordinates": [ 31.1559194, 52.4886287 ] } },
{ "type": "Feature", "properties": { "osm_id": "4234002795", "picnic_table": null, "toilets": null, "fireplace": null, "website": null, "fee": null, "description": null, "name": "Месца сустрэчы" }, "geometry": { "type": "Point", "coordinates": [ 31.1809748, 52.4866922 ] } },
{ "type": "Feature", "properties": { "osm_id": "4305154364", "picnic_table": null, "toilets": null, "fireplace": null, "website": null, "fee": null, "description": null, "name": null }, "geometry": { "type": "Point", "coordinates": [ 25.6061381, 53.1669296 ] } },
{ "type": "Feature", "properties": { "osm_id": "4310392889", "picnic_table": null, "toilets": null, "fireplace": null, "website": null, "fee": null, "description": null, "name": "с/т Атаздароўе" }, "geometry": { "type": "Point", "coordinates": [ 27.9095962, 53.9925596 ] } },
{ "type": "Feature", "properties": { "osm_id": "4315900193", "picnic_table": null, "toilets": null, "fireplace": null, "website": null, "fee": null, "description": null, "name": "Рыбалка і месца для фота" }, "geometry": { "type": "Point", "coordinates": [ 31.1586399, 52.4975993 ] } },
{ "type": "Feature", "properties": { "osm_id": "4326599997", "picnic_table": null, "toilets": null, "fireplace": null, "website": "https://drive-gomel.by/", "fee": null, "description": null, "name": "Пэйнтбольны клуб «Драйв»" }, "geometry": { "type": "Point", "coordinates": [ 30.8827306, 52.5378303 ] } },
{ "type": "Feature", "properties": { "osm_id": "4327808489", "picnic_table": null, "toilets": null, "fireplace": null, "website": null, "fee": null, "description": null, "name": null }, "geometry": { "type": "Point", "coordinates": [ 27.5813204, 54.2148038 ] } },
{ "type": "Feature", "properties": { "osm_id": "4329424674", "picnic_table": null, "toilets": null, "fireplace": null, "website": null, "fee": null, "description": null, "name": null }, "geometry": { "type": "Point", "coordinates": [ 29.6318865, 55.2474405 ] } },
{ "type": "Feature", "properties": { "osm_id": "4341763989", "picnic_table": null, "toilets": null, "fireplace": null, "website": null, "fee": null, "description": null, "name": "Лугаўцы" }, "geometry": { "type": "Point", "coordinates": [ 30.6313843, 54.5521737 ] } },
{ "type": "Feature", "properties": { "osm_id": "4349743266", "picnic_table": null, "toilets": null, "fireplace": null, "website": null, "fee": null, "description": null, "name": "Турыстычная паляна" }, "geometry": { "type": "Point", "coordinates": [ 26.7067805, 53.9640884 ] } },
{ "type": "Feature", "properties": { "osm_id": "4354515591", "picnic_table": null, "toilets": null, "fireplace": null, "website": null, "fee": null, "description": null, "name": "т/с Міжазёрная (заказная на 8 чал.)" }, "geometry": { "type": "Point", "coordinates": [ 27.0966486, 55.7405491 ] } },
{ "type": "Feature", "properties": { "osm_id": "4359221992", "picnic_table": null, "toilets": null, "fireplace": null, "website": null, "fee": null, "description": null, "name": "Карʼер" }, "geometry": { "type": "Point", "coordinates": [ 29.0365264, 54.6373627 ] } },
{ "type": "Feature", "properties": { "osm_id": "4366655491", "picnic_table": null, "toilets": null, "fireplace": null, "website": null, "fee": null, "description": null, "name": null }, "geometry": { "type": "Point", "coordinates": [ 28.8868603, 55.3500294 ] } },
{ "type": "Feature", "properties": { "osm_id": "4366664390", "picnic_table": null, "toilets": null, "fireplace": null, "website": null, "fee": null, "description": null, "name": null }, "geometry": { "type": "Point", "coordinates": [ 28.8843178, 55.3491121 ] } },
{ "type": "Feature", "properties": { "osm_id": "4366664391", "picnic_table": null, "toilets": null, "fireplace": null, "website": null, "fee": null, "description": null, "name": null }, "geometry": { "type": "Point", "coordinates": [ 28.8798429, 55.3464931 ] } },
{ "type": "Feature", "properties": { "osm_id": "4366710590", "picnic_table": null, "toilets": null, "fireplace": null, "website": null, "fee": null, "description": null, "name": null }, "geometry": { "type": "Point", "coordinates": [ 28.8409113, 55.2942185 ] } },
{ "type": "Feature", "properties": { "osm_id": "4366710591", "picnic_table": null, "toilets": null, "fireplace": null, "website": null, "fee": null, "description": null, "name": null }, "geometry": { "type": "Point", "coordinates": [ 28.8860868, 55.3505237 ] } },
{ "type": "Feature", "properties": { "osm_id": "4373588189", "picnic_table": null, "toilets": null, "fireplace": null, "website": null, "fee": null, "description": null, "name": null }, "geometry": { "type": "Point", "coordinates": [ 27.2275263, 54.3318767 ] } },
{ "type": "Feature", "properties": { "osm_id": "4373730301", "picnic_table": null, "toilets": null, "fireplace": null, "website": null, "fee": null, "description": null, "name": null }, "geometry": { "type": "Point", "coordinates": [ 27.0989357, 54.4766981 ] } },
{ "type": "Feature", "properties": { "osm_id": "4398874101", "picnic_table": null, "toilets": null, "fireplace": null, "website": null, "fee": null, "description": null, "name": "Палаткава-аздараўленчы лагер «Крыніца»" }, "geometry": { "type": "Point", "coordinates": [ 27.2120576, 54.4919808 ] } },
{ "type": "Feature", "properties": { "osm_id": "4399573096", "picnic_table": null, "toilets": null, "fireplace": null, "website": null, "fee": null, "description": null, "name": "зона адпачынку(столік,лавачкі)" }, "geometry": { "type": "Point", "coordinates": [ 23.9639314, 53.6453543 ] } },
{ "type": "Feature", "properties": { "osm_id": "4427456892", "picnic_table": null, "toilets": null, "fireplace": null, "website": null, "fee": null, "description": null, "name": null }, "geometry": { "type": "Point", "coordinates": [ 26.7095082, 54.8474343 ] } },
{ "type": "Feature", "properties": { "osm_id": "4485271004", "picnic_table": null, "toilets": null, "fireplace": null, "website": null, "fee": null, "description": null, "name": null }, "geometry": { "type": "Point", "coordinates": [ 30.0363918, 55.5141828 ] } },
{ "type": "Feature", "properties": { "osm_id": "4535645793", "picnic_table": null, "toilets": null, "fireplace": null, "website": null, "fee": null, "description": null, "name": null }, "geometry": { "type": "Point", "coordinates": [ 30.3950052, 54.4405925 ] } },
{ "type": "Feature", "properties": { "osm_id": "4535645794", "picnic_table": null, "toilets": null, "fireplace": null, "website": null, "fee": null, "description": null, "name": null }, "geometry": { "type": "Point", "coordinates": [ 30.3869653, 54.4570434 ] } },
{ "type": "Feature", "properties": { "osm_id": "4563406806", "picnic_table": null, "toilets": null, "fireplace": null, "website": null, "fee": null, "description": null, "name": null }, "geometry": { "type": "Point", "coordinates": [ 31.1338233, 52.4862932 ] } },
{ "type": "Feature", "properties": { "osm_id": "4582305656", "picnic_table": null, "toilets": null, "fireplace": null, "website": null, "fee": null, "description": null, "name": null }, "geometry": { "type": "Point", "coordinates": [ 29.1945362, 54.5240828 ] } },
{ "type": "Feature", "properties": { "osm_id": "4603754295", "picnic_table": null, "toilets": null, "fireplace": null, "website": null, "fee": null, "description": null, "name": "Сежа" }, "geometry": { "type": "Point", "coordinates": [ 26.9765269, 53.4366947 ] } },
{ "type": "Feature", "properties": { "osm_id": "4623226989", "picnic_table": null, "toilets": null, "fireplace": null, "website": null, "fee": null, "description": null, "name": "Дом рыбака" }, "geometry": { "type": "Point", "coordinates": [ 31.0548555, 52.4319271 ] } },
{ "type": "Feature", "properties": { "osm_id": "4674502789", "picnic_table": null, "toilets": null, "fireplace": null, "website": null, "fee": null, "description": null, "name": "парк сямейнага адпачынку Лап-ландыя" }, "geometry": { "type": "Point", "coordinates": [ 27.7793664, 52.7589409 ] } },
{ "type": "Feature", "properties": { "osm_id": "4781033423", "picnic_table": null, "toilets": null, "fireplace": null, "website": null, "fee": null, "description": null, "name": "Рыбалка" }, "geometry": { "type": "Point", "coordinates": [ 26.9012208, 51.9057003 ] } },
{ "type": "Feature", "properties": { "osm_id": "4787657106", "picnic_table": null, "toilets": null, "fireplace": null, "website": null, "fee": null, "description": null, "name": null }, "geometry": { "type": "Point", "coordinates": [ 27.2399727, 54.1927666 ] } },
{ "type": "Feature", "properties": { "osm_id": "4826986621", "picnic_table": null, "toilets": null, "fireplace": null, "website": "http://goznakpaper.by/about/recreation_center/", "fee": null, "description": null, "name": "База адпачынку УП «Папяровая фабрыка» Дзяржзнака" }, "geometry": { "type": "Point", "coordinates": [ 28.6390032, 54.1474811 ] } },
{ "type": "Feature", "properties": { "osm_id": "4843518242", "picnic_table": null, "toilets": null, "fireplace": null, "website": null, "fee": null, "description": null, "name": null }, "geometry": { "type": "Point", "coordinates": [ 25.4795434, 53.3388609 ] } },
{ "type": "Feature", "properties": { "osm_id": "4844223322", "picnic_table": null, "toilets": null, "fireplace": null, "website": null, "fee": null, "description": null, "name": "Інава" }, "geometry": { "type": "Point", "coordinates": [ 27.2315796, 55.5737453 ] } },
{ "type": "Feature", "properties": { "osm_id": "4861183631", "picnic_table": null, "toilets": null, "fireplace": null, "website": null, "fee": null, "description": null, "name": null }, "geometry": { "type": "Point", "coordinates": [ 27.4280508, 55.1982861 ] } },
{ "type": "Feature", "properties": { "osm_id": "4894746622", "picnic_table": null, "toilets": null, "fireplace": null, "website": null, "fee": null, "description": null, "name": "Нёман" }, "geometry": { "type": "Point", "coordinates": [ 25.7057964, 53.8565668 ] } },
{ "type": "Feature", "properties": { "osm_id": "4910874498", "picnic_table": null, "toilets": null, "fireplace": null, "website": null, "fee": null, "description": null, "name": null }, "geometry": { "type": "Point", "coordinates": [ 27.1670102, 54.441962 ] } },
{ "type": "Feature", "properties": { "osm_id": "4910890513", "picnic_table": null, "toilets": null, "fireplace": null, "website": null, "fee": null, "description": null, "name": null }, "geometry": { "type": "Point", "coordinates": [ 27.1636801, 54.4436131 ] } },
{ "type": "Feature", "properties": { "osm_id": "4910890514", "picnic_table": null, "toilets": null, "fireplace": null, "website": null, "fee": null, "description": null, "name": null }, "geometry": { "type": "Point", "coordinates": [ 27.1638091, 54.4441031 ] } },
{ "type": "Feature", "properties": { "osm_id": "4910891025", "picnic_table": null, "toilets": null, "fireplace": null, "website": null, "fee": null, "description": null, "name": null }, "geometry": { "type": "Point", "coordinates": [ 27.1637214, 54.4425525 ] } },
{ "type": "Feature", "properties": { "osm_id": "4913630622", "picnic_table": null, "toilets": null, "fireplace": null, "website": null, "fee": null, "description": null, "name": "Чэрап" }, "geometry": { "type": "Point", "coordinates": [ 26.4045615, 54.1244832 ] } },
{ "type": "Feature", "properties": { "osm_id": "4920624521", "picnic_table": null, "toilets": null, "fireplace": null, "website": null, "fee": null, "description": null, "name": null }, "geometry": { "type": "Point", "coordinates": [ 23.7656817, 53.5903065 ] } },
{ "type": "Feature", "properties": { "osm_id": "4920624621", "picnic_table": null, "toilets": null, "fireplace": null, "website": null, "fee": null, "description": null, "name": null }, "geometry": { "type": "Point", "coordinates": [ 23.7697197, 53.7140057 ] } },
{ "type": "Feature", "properties": { "osm_id": "4932162321", "picnic_table": null, "toilets": null, "fireplace": null, "website": null, "fee": null, "description": null, "name": "ВіліяКап" }, "geometry": { "type": "Point", "coordinates": [ 26.5360003, 54.4449192 ] } },
{ "type": "Feature", "properties": { "osm_id": "4949591858", "picnic_table": null, "toilets": null, "fireplace": null, "website": null, "fee": null, "description": null, "name": null }, "geometry": { "type": "Point", "coordinates": [ 26.7428175, 53.9572502 ] } },
{ "type": "Feature", "properties": { "osm_id": "4952326312", "picnic_table": null, "toilets": null, "fireplace": null, "website": null, "fee": null, "description": null, "name": "Нёман" }, "geometry": { "type": "Point", "coordinates": [ 27.0468438, 53.3709831 ] } },
{ "type": "Feature", "properties": { "osm_id": "4961794223", "picnic_table": null, "toilets": null, "fireplace": null, "website": null, "fee": null, "description": null, "name": "Масцішча" }, "geometry": { "type": "Point", "coordinates": [ 28.2277759, 54.8481234 ] } },
{ "type": "Feature", "properties": { "osm_id": "4982441738", "picnic_table": null, "toilets": null, "fireplace": null, "website": null, "fee": "yes", "description": "(заказная на 8чел.)", "name": "Турстаянка «Пясочкі»" }, "geometry": { "type": "Point", "coordinates": [ 27.0331947, 55.7154062 ] } },
{ "type": "Feature", "properties": { "osm_id": "4987123009", "picnic_table": null, "toilets": null, "fireplace": null, "website": null, "fee": null, "description": null, "name": null }, "geometry": { "type": "Point", "coordinates": [ 26.8889537, 53.9792506 ] } },
{ "type": "Feature", "properties": { "osm_id": "4992810327", "picnic_table": null, "toilets": null, "fireplace": null, "website": null, "fee": null, "description": "You can pitch a tent over the lake", "name": null }, "geometry": { "type": "Point", "coordinates": [ 24.7322913, 53.5770493 ] } },
{ "type": "Feature", "properties": { "osm_id": "5002905621", "picnic_table": null, "toilets": null, "fireplace": null, "website": null, "fee": null, "description": null, "name": "дубрава" }, "geometry": { "type": "Point", "coordinates": [ 31.079835, 52.458444 ] } },
{ "type": "Feature", "properties": { "osm_id": "5006955769", "picnic_table": null, "toilets": null, "fireplace": null, "website": null, "fee": null, "description": null, "name": "Кемпінг" }, "geometry": { "type": "Point", "coordinates": [ 26.2492252, 54.8750598 ] } },
{ "type": "Feature", "properties": { "osm_id": "5025053772", "picnic_table": null, "toilets": null, "fireplace": null, "website": null, "fee": null, "description": null, "name": "Месца для стаянкі" }, "geometry": { "type": "Point", "coordinates": [ 26.2190667, 53.9158752 ] } },
{ "type": "Feature", "properties": { "osm_id": "5025054118", "picnic_table": null, "toilets": null, "fireplace": null, "website": null, "fee": null, "description": "Хорошее место для стоянки", "name": null }, "geometry": { "type": "Point", "coordinates": [ 26.0508638, 53.8236609 ] } },
{ "type": "Feature", "properties": { "osm_id": "5037601978", "picnic_table": null, "toilets": null, "fireplace": null, "website": null, "fee": null, "description": null, "name": "Месца для стаянкі" }, "geometry": { "type": "Point", "coordinates": [ 26.3963746, 54.5646353 ] } },
{ "type": "Feature", "properties": { "osm_id": "5050366821", "picnic_table": null, "toilets": null, "fireplace": null, "website": null, "fee": null, "description": null, "name": null }, "geometry": { "type": "Point", "coordinates": [ 26.9666453, 53.9815633 ] } },
{ "type": "Feature", "properties": { "osm_id": "5056344923", "picnic_table": null, "toilets": null, "fireplace": null, "website": null, "fee": "yes", "description": null, "name": "Чысты бераг (заказная турстаянка)" }, "geometry": { "type": "Point", "coordinates": [ 27.1171264, 55.7572297 ] } },
{ "type": "Feature", "properties": { "osm_id": "5144851921", "picnic_table": null, "toilets": null, "fireplace": null, "website": null, "fee": null, "description": "Стоянка с обрывом", "name": null }, "geometry": { "type": "Point", "coordinates": [ 26.791711, 53.9580804 ] } },
{ "type": "Feature", "properties": { "osm_id": "5164700932", "picnic_table": null, "toilets": null, "fireplace": null, "website": null, "fee": null, "description": null, "name": null }, "geometry": { "type": "Point", "coordinates": [ 26.4055916, 54.1247494 ] } },
{ "type": "Feature", "properties": { "osm_id": "5335539764", "picnic_table": null, "toilets": null, "fireplace": null, "website": null, "fee": null, "description": null, "name": null }, "geometry": { "type": "Point", "coordinates": [ 25.4980089, 52.4090739 ] } },
{ "type": "Feature", "properties": { "osm_id": "5407689567", "picnic_table": null, "toilets": null, "fireplace": null, "website": null, "fee": null, "description": null, "name": "Las maj Proście" }, "geometry": { "type": "Point", "coordinates": [ 26.3690853, 53.3542433 ] } },
{ "type": "Feature", "properties": { "osm_id": "5464284051", "picnic_table": null, "toilets": null, "fireplace": null, "website": null, "fee": null, "description": null, "name": "Турбаза ААТ «Полацкі малочны камбінат»" }, "geometry": { "type": "Point", "coordinates": [ 28.813951, 55.3070412 ] } },
{ "type": "Feature", "properties": { "osm_id": "5464295537", "picnic_table": null, "toilets": null, "fireplace": null, "website": null, "fee": null, "description": null, "name": "Загарадная база «Шчаты»" }, "geometry": { "type": "Point", "coordinates": [ 28.8050253, 55.3054354 ] } },
{ "type": "Feature", "properties": { "osm_id": "5464295538", "picnic_table": null, "toilets": null, "fireplace": null, "website": null, "fee": null, "description": null, "name": "Турбаза Полацкага хлебазавода" }, "geometry": { "type": "Point", "coordinates": [ 28.8109173, 55.3050514 ] } },
{ "type": "Feature", "properties": { "osm_id": "5464295626", "picnic_table": null, "toilets": null, "fireplace": null, "website": null, "fee": null, "description": null, "name": "Турбаза ААТ «Полацкі малочны камбінат»" }, "geometry": { "type": "Point", "coordinates": [ 28.8147166, 55.3060417 ] } },
{ "type": "Feature", "properties": { "osm_id": "5472809122", "picnic_table": null, "toilets": null, "fireplace": null, "website": null, "fee": null, "description": null, "name": null }, "geometry": { "type": "Point", "coordinates": [ 25.9092631, 53.447279 ] } },
{ "type": "Feature", "properties": { "osm_id": "5543414321", "picnic_table": null, "toilets": null, "fireplace": null, "website": null, "fee": null, "description": "Крутое место", "name": null }, "geometry": { "type": "Point", "coordinates": [ 23.9985927, 53.6175258 ] } },
{ "type": "Feature", "properties": { "osm_id": "5570831923", "picnic_table": null, "toilets": null, "fireplace": null, "website": null, "fee": null, "description": null, "name": null }, "geometry": { "type": "Point", "coordinates": [ 26.7333235, 53.4604783 ] } },
{ "type": "Feature", "properties": { "osm_id": "5584760326", "picnic_table": null, "toilets": null, "fireplace": null, "website": null, "fee": null, "description": "Стоянка со столами и навесом", "name": null }, "geometry": { "type": "Point", "coordinates": [ 26.7677927, 53.956492 ] } },
{ "type": "Feature", "properties": { "osm_id": "5596714347", "picnic_table": null, "toilets": null, "fireplace": null, "website": null, "fee": "yes", "description": null, "name": "Хутарок" }, "geometry": { "type": "Point", "coordinates": [ 25.9042773, 53.4268569 ] } },
{ "type": "Feature", "properties": { "osm_id": "5607518566", "picnic_table": null, "toilets": null, "fireplace": null, "website": null, "fee": null, "description": null, "name": null }, "geometry": { "type": "Point", "coordinates": [ 27.6092684, 52.801401 ] } },
{ "type": "Feature", "properties": { "osm_id": "5609308959", "picnic_table": null, "toilets": null, "fireplace": null, "website": null, "fee": null, "description": null, "name": null }, "geometry": { "type": "Point", "coordinates": [ 26.2208357, 53.2675473 ] } },
{ "type": "Feature", "properties": { "osm_id": "5626961105", "picnic_table": null, "toilets": null, "fireplace": null, "website": null, "fee": null, "description": null, "name": null }, "geometry": { "type": "Point", "coordinates": [ 25.5061474, 52.9728159 ] } },
{ "type": "Feature", "properties": { "osm_id": "5636885822", "picnic_table": null, "toilets": null, "fireplace": null, "website": null, "fee": null, "description": null, "name": "Стаянка" }, "geometry": { "type": "Point", "coordinates": [ 28.4366451, 56.0088129 ] } },
{ "type": "Feature", "properties": { "osm_id": "5658739093", "picnic_table": null, "toilets": null, "fireplace": null, "website": null, "fee": null, "description": null, "name": null }, "geometry": { "type": "Point", "coordinates": [ 27.3916356, 53.3981483 ] } },
{ "type": "Feature", "properties": { "osm_id": "5662868103", "picnic_table": null, "toilets": null, "fireplace": null, "website": "https://zabrodje.com/about.php", "fee": null, "description": null, "name": "Заброддзе" }, "geometry": { "type": "Point", "coordinates": [ 26.7272727, 54.5435403 ] } },
{ "type": "Feature", "properties": { "osm_id": "5685145486", "picnic_table": null, "toilets": null, "fireplace": null, "website": null, "fee": null, "description": null, "name": null }, "geometry": { "type": "Point", "coordinates": [ 27.4208441, 55.5809978 ] } },
{ "type": "Feature", "properties": { "osm_id": "5698586635", "picnic_table": null, "toilets": null, "fireplace": null, "website": null, "fee": null, "description": null, "name": "Турыстычная паляна" }, "geometry": { "type": "Point", "coordinates": [ 26.7041159, 53.9639081 ] } },
{ "type": "Feature", "properties": { "osm_id": "5698586636", "picnic_table": null, "toilets": null, "fireplace": null, "website": null, "fee": null, "description": null, "name": "Турыстычная паляна" }, "geometry": { "type": "Point", "coordinates": [ 26.70302, 53.9666238 ] } },
{ "type": "Feature", "properties": { "osm_id": "5760815013", "picnic_table": null, "toilets": null, "fireplace": null, "website": null, "fee": null, "description": null, "name": null }, "geometry": { "type": "Point", "coordinates": [ 26.7683743, 53.5938754 ] } },
{ "type": "Feature", "properties": { "osm_id": "5760815023", "picnic_table": null, "toilets": null, "fireplace": null, "website": null, "fee": null, "description": null, "name": null }, "geometry": { "type": "Point", "coordinates": [ 26.7551798, 53.5912481 ] } },
{ "type": "Feature", "properties": { "osm_id": "5771451253", "picnic_table": null, "toilets": null, "fireplace": null, "website": null, "fee": null, "description": null, "name": "воднае хрышчэнне" }, "geometry": { "type": "Point", "coordinates": [ 27.6303559, 54.0647741 ] } },
{ "type": "Feature", "properties": { "osm_id": "5778536179", "picnic_table": null, "toilets": null, "fireplace": null, "website": null, "fee": null, "description": null, "name": null }, "geometry": { "type": "Point", "coordinates": [ 26.9391525, 53.9799509 ] } },
{ "type": "Feature", "properties": { "osm_id": "5778541584", "picnic_table": null, "toilets": null, "fireplace": null, "website": null, "fee": null, "description": null, "name": null }, "geometry": { "type": "Point", "coordinates": [ 26.947698, 53.9808784 ] } },
{ "type": "Feature", "properties": { "osm_id": "5778541604", "picnic_table": null, "toilets": null, "fireplace": null, "website": null, "fee": null, "description": null, "name": null }, "geometry": { "type": "Point", "coordinates": [ 26.9531536, 53.9818342 ] } },
{ "type": "Feature", "properties": { "osm_id": "5778541605", "picnic_table": null, "toilets": null, "fireplace": null, "website": null, "fee": null, "description": null, "name": null }, "geometry": { "type": "Point", "coordinates": [ 26.9563213, 53.9832301 ] } },
{ "type": "Feature", "properties": { "osm_id": "5778541606", "picnic_table": null, "toilets": null, "fireplace": null, "website": null, "fee": null, "description": null, "name": null }, "geometry": { "type": "Point", "coordinates": [ 26.9571286, 53.9831307 ] } },
{ "type": "Feature", "properties": { "osm_id": "5778578772", "picnic_table": null, "toilets": null, "fireplace": null, "website": null, "fee": null, "description": null, "name": null }, "geometry": { "type": "Point", "coordinates": [ 26.9233596, 53.9815629 ] } },
{ "type": "Feature", "properties": { "osm_id": "5778578800", "picnic_table": null, "toilets": null, "fireplace": null, "website": null, "fee": null, "description": null, "name": null }, "geometry": { "type": "Point", "coordinates": [ 26.9325328, 53.9810487 ] } },
{ "type": "Feature", "properties": { "osm_id": "5778578802", "picnic_table": null, "toilets": null, "fireplace": null, "website": null, "fee": null, "description": null, "name": null }, "geometry": { "type": "Point", "coordinates": [ 26.9348609, 53.9800077 ] } },
{ "type": "Feature", "properties": { "osm_id": "5778578803", "picnic_table": null, "toilets": null, "fireplace": null, "website": null, "fee": null, "description": null, "name": null }, "geometry": { "type": "Point", "coordinates": [ 26.9341958, 53.9802916 ] } },
{ "type": "Feature", "properties": { "osm_id": "5778585866", "picnic_table": null, "toilets": null, "fireplace": null, "website": null, "fee": null, "description": null, "name": null }, "geometry": { "type": "Point", "coordinates": [ 26.9297862, 53.9823389 ] } },
{ "type": "Feature", "properties": { "osm_id": "5778634893", "picnic_table": null, "toilets": null, "fireplace": null, "website": null, "fee": null, "description": null, "name": null }, "geometry": { "type": "Point", "coordinates": [ 26.8690342, 53.9704512 ] } },
{ "type": "Feature", "properties": { "osm_id": "5778634894", "picnic_table": null, "toilets": null, "fireplace": null, "website": null, "fee": null, "description": null, "name": null }, "geometry": { "type": "Point", "coordinates": [ 26.8706435, 53.9707037 ] } },
{ "type": "Feature", "properties": { "osm_id": "5778634895", "picnic_table": null, "toilets": null, "fireplace": null, "website": null, "fee": null, "description": null, "name": null }, "geometry": { "type": "Point", "coordinates": [ 26.8710914, 53.9702161 ] } },
{ "type": "Feature", "properties": { "osm_id": "5781143433", "picnic_table": null, "toilets": null, "fireplace": null, "website": null, "fee": null, "description": null, "name": null }, "geometry": { "type": "Point", "coordinates": [ 26.7965206, 53.961507 ] } },
{ "type": "Feature", "properties": { "osm_id": "5781143434", "picnic_table": null, "toilets": null, "fireplace": null, "website": null, "fee": null, "description": null, "name": null }, "geometry": { "type": "Point", "coordinates": [ 26.7913273, 53.9587695 ] } },
{ "type": "Feature", "properties": { "osm_id": "5781151292", "picnic_table": null, "toilets": null, "fireplace": null, "website": null, "fee": null, "description": null, "name": null }, "geometry": { "type": "Point", "coordinates": [ 26.8122733, 53.9631854 ] } },
{ "type": "Feature", "properties": { "osm_id": "5811790555", "picnic_table": null, "toilets": null, "fireplace": null, "website": null, "fee": "no", "description": null, "name": "Валоба" }, "geometry": { "type": "Point", "coordinates": [ 29.3858503, 55.8967617 ] } },
{ "type": "Feature", "properties": { "osm_id": "5828770288", "picnic_table": null, "toilets": null, "fireplace": null, "website": null, "fee": null, "description": null, "name": null }, "geometry": { "type": "Point", "coordinates": [ 27.0947957, 54.476473 ] } },
{ "type": "Feature", "properties": { "osm_id": "5834368831", "picnic_table": null, "toilets": null, "fireplace": null, "website": "https://braslavpark.by/otdykh-i-turizm/turstoyanki/zakazniye/uklya/#Kuba_uk", "fee": "yes", "description": "Заказная туристическая стоянка расположена на поляне рядом с озером Укля.  Оснащение: беседка, кострище с лавками, пирс к воде, навес для дров, туалет, мусоросборник. Береговая линия с незначительной прибрежно-водной растительностью.", "name": "Куба (заказная турстаянка)" }, "geometry": { "type": "Point", "coordinates": [ 27.3314295, 55.6008052 ] } },
{ "type": "Feature", "properties": { "osm_id": "5834368832", "picnic_table": null, "toilets": null, "fireplace": null, "website": "https://braslavpark.by/otdykh-i-turizm/turstoyanki/zakazniye/uklya/#Bali_uk", "fee": "yes", "description": "Заказная туристическая стоянка расположена на возвышенности у озера Укля, по берегу растут деревья. Оснащение: беседка, кострище с лавками, пирс к воде, навес для дров, туалет и мусоросборник.", "name": "Балі (заказная турстаянка)" }, "geometry": { "type": "Point", "coordinates": [ 27.3330721, 55.5996648 ] } },
{ "type": "Feature", "properties": { "osm_id": "5834368833", "picnic_table": null, "toilets": null, "fireplace": null, "website": "https://braslavpark.by/otdykh-i-turizm/turstoyanki/zakazniye/uklya/#Maldivy_uk", "fee": "yes", "description": "Заказная туристическая стоянка расположена на поляне у озера Укля. Оснащение: беседка, кострище с лавками, навес для дров, туалет, мусоросборник. Береговая линия с незначительной прибрежно-водной растительностью, песчаное дно.  Обрывистый спуск к воде.", "name": "Мальдывы (заказная турстаянка)" }, "geometry": { "type": "Point", "coordinates": [ 27.334858, 55.5990718 ] } },
{ "type": "Feature", "properties": { "osm_id": "5834368834", "picnic_table": null, "toilets": null, "fireplace": null, "website": "https://braslavpark.by/otdykh-i-turizm/turstoyanki/zakazniye/uklya/#Taiti_uk", "fee": "yes", "description": "Заказная туристическая стоянка расположена на полянке берега озера Укля, по кругу турстоянки растут деревья. Оснащена: беседкой, навесом для дров, туалетом, кострищем.", "name": "Таіці (заказная турстаянка)" }, "geometry": { "type": "Point", "coordinates": [ 27.3369228, 55.5990508 ] } },
{ "type": "Feature", "properties": { "osm_id": "5835951090", "picnic_table": null, "toilets": null, "fireplace": null, "website": null, "fee": "yes", "description": null, "name": "Лазурная (заказная турстоянка)" }, "geometry": { "type": "Point", "coordinates": [ 27.1406836, 55.7354174 ] } },
{ "type": "Feature", "properties": { "osm_id": "5836173657", "picnic_table": null, "toilets": null, "fireplace": null, "website": null, "fee": "yes", "description": "(заказная турстоянка). Расположена на открытом месте возле озера Снуды, рядом сосновый лес. Оснащение: беседка, пирс к воде, кострище с лавками, туалет, мусоросборник. Песчаный пляж, плавный вход в воду. ", "name": "Сонечная" }, "geometry": { "type": "Point", "coordinates": [ 27.1028772, 55.7316334 ] } },
{ "type": "Feature", "properties": { "osm_id": "5846726885", "picnic_table": null, "toilets": null, "fireplace": null, "website": null, "fee": null, "description": null, "name": "Кемпінг Сцёпы і Андрэя" }, "geometry": { "type": "Point", "coordinates": [ 26.5138028, 54.4513954 ] } },
{ "type": "Feature", "properties": { "osm_id": "5884005727", "picnic_table": null, "toilets": null, "fireplace": null, "website": null, "fee": null, "description": null, "name": null }, "geometry": { "type": "Point", "coordinates": [ 27.2964657, 54.6964291 ] } },
{ "type": "Feature", "properties": { "osm_id": "5891679925", "picnic_table": null, "toilets": null, "fireplace": null, "website": null, "fee": "no", "description": null, "name": null }, "geometry": { "type": "Point", "coordinates": [ 27.2453677, 54.189473 ] } },
{ "type": "Feature", "properties": { "osm_id": "5892688916", "picnic_table": null, "toilets": null, "fireplace": null, "website": null, "fee": null, "description": null, "name": null }, "geometry": { "type": "Point", "coordinates": [ 28.0497437, 54.1016062 ] } },
{ "type": "Feature", "properties": { "osm_id": "5892688957", "picnic_table": null, "toilets": null, "fireplace": null, "website": null, "fee": null, "description": null, "name": null }, "geometry": { "type": "Point", "coordinates": [ 28.0495787, 54.1022623 ] } },
{ "type": "Feature", "properties": { "osm_id": "5895656614", "picnic_table": null, "toilets": null, "fireplace": null, "website": null, "fee": null, "description": null, "name": "База адпачынку 4" }, "geometry": { "type": "Point", "coordinates": [ 27.1401304, 54.4648444 ] } },
{ "type": "Feature", "properties": { "osm_id": "5895656625", "picnic_table": null, "toilets": null, "fireplace": null, "website": null, "fee": null, "description": null, "name": null }, "geometry": { "type": "Point", "coordinates": [ 27.1402591, 54.4635217 ] } },
{ "type": "Feature", "properties": { "osm_id": "5895657149", "picnic_table": null, "toilets": null, "fireplace": null, "website": null, "fee": null, "description": null, "name": "База адпачынку 1" }, "geometry": { "type": "Point", "coordinates": [ 27.1292353, 54.47534 ] } },
{ "type": "Feature", "properties": { "osm_id": "5895657155", "picnic_table": null, "toilets": null, "fireplace": null, "website": null, "fee": null, "description": null, "name": null }, "geometry": { "type": "Point", "coordinates": [ 27.1303457, 54.4753073 ] } },
{ "type": "Feature", "properties": { "osm_id": "5895657156", "picnic_table": null, "toilets": null, "fireplace": null, "website": null, "fee": null, "description": null, "name": null }, "geometry": { "type": "Point", "coordinates": [ 27.13144, 54.4749753 ] } },
{ "type": "Feature", "properties": { "osm_id": "5895657157", "picnic_table": null, "toilets": null, "fireplace": null, "website": null, "fee": null, "description": null, "name": "База адпачынку 2" }, "geometry": { "type": "Point", "coordinates": [ 27.1322608, 54.4737004 ] } },
{ "type": "Feature", "properties": { "osm_id": "5895657169", "picnic_table": null, "toilets": null, "fireplace": null, "website": null, "fee": null, "description": null, "name": null }, "geometry": { "type": "Point", "coordinates": [ 27.1334892, 54.4701124 ] } },
{ "type": "Feature", "properties": { "osm_id": "5895846210", "picnic_table": null, "toilets": null, "fireplace": null, "website": null, "fee": null, "description": null, "name": null }, "geometry": { "type": "Point", "coordinates": [ 27.030648, 54.4764683 ] } },
{ "type": "Feature", "properties": { "osm_id": "5895846487", "picnic_table": null, "toilets": null, "fireplace": null, "website": null, "fee": null, "description": null, "name": null }, "geometry": { "type": "Point", "coordinates": [ 27.0937604, 54.4762003 ] } },
{ "type": "Feature", "properties": { "osm_id": "5895846488", "picnic_table": null, "toilets": null, "fireplace": null, "website": null, "fee": null, "description": null, "name": null }, "geometry": { "type": "Point", "coordinates": [ 27.0929396, 54.4763094 ] } },
{ "type": "Feature", "properties": { "osm_id": "5895846502", "picnic_table": null, "toilets": null, "fireplace": null, "website": null, "fee": null, "description": null, "name": null }, "geometry": { "type": "Point", "coordinates": [ 27.0985079, 54.4756782 ] } },
{ "type": "Feature", "properties": { "osm_id": "5895846508", "picnic_table": null, "toilets": null, "fireplace": null, "website": null, "fee": null, "description": null, "name": null }, "geometry": { "type": "Point", "coordinates": [ 27.0981485, 54.4765868 ] } },
{ "type": "Feature", "properties": { "osm_id": "5895846526", "picnic_table": null, "toilets": null, "fireplace": null, "website": null, "fee": null, "description": null, "name": null }, "geometry": { "type": "Point", "coordinates": [ 27.1007019, 54.4764091 ] } },
{ "type": "Feature", "properties": { "osm_id": "5895846527", "picnic_table": null, "toilets": null, "fireplace": null, "website": null, "fee": null, "description": null, "name": null }, "geometry": { "type": "Point", "coordinates": [ 27.1021503, 54.4762782 ] } },
{ "type": "Feature", "properties": { "osm_id": "5895846528", "picnic_table": null, "toilets": null, "fireplace": null, "website": null, "fee": null, "description": null, "name": null }, "geometry": { "type": "Point", "coordinates": [ 27.1031105, 54.4763935 ] } },
{ "type": "Feature", "properties": { "osm_id": "5895846539", "picnic_table": null, "toilets": null, "fireplace": null, "website": null, "fee": null, "description": null, "name": null }, "geometry": { "type": "Point", "coordinates": [ 27.106415, 54.4762548 ] } },
{ "type": "Feature", "properties": { "osm_id": "5895846540", "picnic_table": null, "toilets": null, "fireplace": null, "website": null, "fee": null, "description": null, "name": null }, "geometry": { "type": "Point", "coordinates": [ 27.1055379, 54.4762455 ] } },
{ "type": "Feature", "properties": { "osm_id": "5953419989", "picnic_table": null, "toilets": null, "fireplace": null, "website": null, "fee": null, "description": null, "name": null }, "geometry": { "type": "Point", "coordinates": [ 23.7931952, 53.7384893 ] } },
{ "type": "Feature", "properties": { "osm_id": "6180831243", "picnic_table": null, "toilets": null, "fireplace": null, "website": null, "fee": null, "description": null, "name": null }, "geometry": { "type": "Point", "coordinates": [ 26.6209539, 53.086131 ] } },
{ "type": "Feature", "properties": { "osm_id": "6184111790", "picnic_table": null, "toilets": null, "fireplace": null, "website": null, "fee": null, "description": null, "name": null }, "geometry": { "type": "Point", "coordinates": [ 28.1123832, 55.1671987 ] } },
{ "type": "Feature", "properties": { "osm_id": "6261436735", "picnic_table": null, "toilets": null, "fireplace": null, "website": null, "fee": null, "description": null, "name": null }, "geometry": { "type": "Point", "coordinates": [ 25.7526014, 53.0300886 ] } },
{ "type": "Feature", "properties": { "osm_id": "6269704727", "picnic_table": null, "toilets": null, "fireplace": null, "website": null, "fee": null, "description": null, "name": "Camping" }, "geometry": { "type": "Point", "coordinates": [ 28.4378749, 56.0072875 ] } },
{ "type": "Feature", "properties": { "osm_id": "6325448888", "picnic_table": null, "toilets": null, "fireplace": null, "website": null, "fee": null, "description": null, "name": null }, "geometry": { "type": "Point", "coordinates": [ 27.6029151, 54.0629111 ] } },
{ "type": "Feature", "properties": { "osm_id": "6330424380", "picnic_table": null, "toilets": null, "fireplace": null, "website": null, "fee": "no", "description": "Место платной рыбалки. Есть столики, кострища, песчаный вход в воду и пара \"домиков\" ", "name": "Пакамерскае" }, "geometry": { "type": "Point", "coordinates": [ 26.4106477, 52.5694928 ] } },
{ "type": "Feature", "properties": { "osm_id": "6389374127", "picnic_table": null, "toilets": null, "fireplace": null, "website": null, "fee": null, "description": null, "name": null }, "geometry": { "type": "Point", "coordinates": [ 26.9293517, 53.9826954 ] } },
{ "type": "Feature", "properties": { "osm_id": "6405805471", "picnic_table": null, "toilets": null, "fireplace": null, "website": null, "fee": null, "description": null, "name": null }, "geometry": { "type": "Point", "coordinates": [ 26.7761224, 53.5950933 ] } },
{ "type": "Feature", "properties": { "osm_id": "6405878141", "picnic_table": null, "toilets": null, "fireplace": null, "website": null, "fee": null, "description": null, "name": null }, "geometry": { "type": "Point", "coordinates": [ 26.5281146, 53.5796881 ] } },
{ "type": "Feature", "properties": { "osm_id": "6405878142", "picnic_table": null, "toilets": null, "fireplace": null, "website": null, "fee": null, "description": null, "name": null }, "geometry": { "type": "Point", "coordinates": [ 26.5276434, 53.5792163 ] } },
{ "type": "Feature", "properties": { "osm_id": "6405878143", "picnic_table": null, "toilets": null, "fireplace": null, "website": null, "fee": null, "description": null, "name": null }, "geometry": { "type": "Point", "coordinates": [ 26.5268205, 53.5790492 ] } },
{ "type": "Feature", "properties": { "osm_id": "6426192885", "picnic_table": null, "toilets": "yes", "fireplace": null, "website": null, "fee": null, "description": null, "name": "Рэспубліканская турбаза" }, "geometry": { "type": "Point", "coordinates": [ 27.5959094, 53.9461517 ] } },
{ "type": "Feature", "properties": { "osm_id": "6437880885", "picnic_table": null, "toilets": null, "fireplace": null, "website": null, "fee": null, "description": null, "name": null }, "geometry": { "type": "Point", "coordinates": [ 26.4118471, 54.634511 ] } },
{ "type": "Feature", "properties": { "osm_id": "6451335187", "picnic_table": null, "toilets": null, "fireplace": null, "website": null, "fee": null, "description": null, "name": "тур база" }, "geometry": { "type": "Point", "coordinates": [ 27.0915487, 55.6148365 ] } },
{ "type": "Feature", "properties": { "osm_id": "6457471192", "picnic_table": null, "toilets": null, "fireplace": null, "website": null, "fee": null, "description": null, "name": null }, "geometry": { "type": "Point", "coordinates": [ 27.0328728, 53.3762789 ] } },
{ "type": "Feature", "properties": { "osm_id": "6457491814", "picnic_table": null, "toilets": null, "fireplace": null, "website": null, "fee": null, "description": null, "name": null }, "geometry": { "type": "Point", "coordinates": [ 27.1679905, 53.3758805 ] } },
{ "type": "Feature", "properties": { "osm_id": "6468156223", "picnic_table": null, "toilets": null, "fireplace": null, "website": null, "fee": null, "description": null, "name": null }, "geometry": { "type": "Point", "coordinates": [ 24.9923296, 53.5047236 ] } },
{ "type": "Feature", "properties": { "osm_id": "6469612546", "picnic_table": null, "toilets": null, "fireplace": null, "website": null, "fee": null, "description": null, "name": null }, "geometry": { "type": "Point", "coordinates": [ 26.9912517, 53.430235 ] } },
{ "type": "Feature", "properties": { "osm_id": "6469612555", "picnic_table": null, "toilets": null, "fireplace": null, "website": null, "fee": null, "description": null, "name": null }, "geometry": { "type": "Point", "coordinates": [ 26.9965058, 53.4260651 ] } },
{ "type": "Feature", "properties": { "osm_id": "6469656118", "picnic_table": null, "toilets": null, "fireplace": null, "website": null, "fee": null, "description": null, "name": "высокі бераг" }, "geometry": { "type": "Point", "coordinates": [ 26.9798738, 53.4405381 ] } },
{ "type": "Feature", "properties": { "osm_id": "6469718149", "picnic_table": null, "toilets": null, "fireplace": null, "website": null, "fee": null, "description": null, "name": null }, "geometry": { "type": "Point", "coordinates": [ 27.0305246, 53.3760069 ] } },
{ "type": "Feature", "properties": { "osm_id": "6469718150", "picnic_table": null, "toilets": null, "fireplace": null, "website": null, "fee": null, "description": null, "name": null }, "geometry": { "type": "Point", "coordinates": [ 27.0325363, 53.3754661 ] } },
{ "type": "Feature", "properties": { "osm_id": "6469718151", "picnic_table": null, "toilets": null, "fireplace": null, "website": null, "fee": null, "description": null, "name": null }, "geometry": { "type": "Point", "coordinates": [ 27.0319181, 53.3760189 ] } },
{ "type": "Feature", "properties": { "osm_id": "6469749770", "picnic_table": null, "toilets": null, "fireplace": null, "website": null, "fee": null, "description": null, "name": null }, "geometry": { "type": "Point", "coordinates": [ 27.0437211, 53.3647472 ] } },
{ "type": "Feature", "properties": { "osm_id": "6469749771", "picnic_table": null, "toilets": null, "fireplace": null, "website": null, "fee": null, "description": null, "name": null }, "geometry": { "type": "Point", "coordinates": [ 27.0417577, 53.3646511 ] } },
{ "type": "Feature", "properties": { "osm_id": "6469749895", "picnic_table": null, "toilets": null, "fireplace": null, "website": null, "fee": null, "description": null, "name": null }, "geometry": { "type": "Point", "coordinates": [ 27.0415109, 53.3679097 ] } },
{ "type": "Feature", "properties": { "osm_id": "6469749896", "picnic_table": null, "toilets": null, "fireplace": null, "website": null, "fee": null, "description": null, "name": "Высокі бераг" }, "geometry": { "type": "Point", "coordinates": [ 27.0408082, 53.3672983 ] } },
{ "type": "Feature", "properties": { "osm_id": "6476394185", "picnic_table": null, "toilets": null, "fireplace": null, "website": null, "fee": null, "description": null, "name": "Пляж" }, "geometry": { "type": "Point", "coordinates": [ 29.1224277, 52.112195 ] } },
{ "type": "Feature", "properties": { "osm_id": "6485219182", "picnic_table": null, "toilets": null, "fireplace": null, "website": null, "fee": null, "description": null, "name": null }, "geometry": { "type": "Point", "coordinates": [ 26.7849898, 53.9575817 ] } },
{ "type": "Feature", "properties": { "osm_id": "6485227286", "picnic_table": null, "toilets": null, "fireplace": null, "website": null, "fee": null, "description": null, "name": null }, "geometry": { "type": "Point", "coordinates": [ 26.7880851, 53.9578184 ] } },
{ "type": "Feature", "properties": { "osm_id": "6485227308", "picnic_table": null, "toilets": null, "fireplace": null, "website": null, "fee": null, "description": null, "name": null }, "geometry": { "type": "Point", "coordinates": [ 26.7911401, 53.9577347 ] } },
{ "type": "Feature", "properties": { "osm_id": "6488297436", "picnic_table": null, "toilets": null, "fireplace": null, "website": null, "fee": null, "description": null, "name": "Рыбалка" }, "geometry": { "type": "Point", "coordinates": [ 28.6337512, 54.152193 ] } },
{ "type": "Feature", "properties": { "osm_id": "6501763887", "picnic_table": null, "toilets": null, "fireplace": null, "website": null, "fee": null, "description": null, "name": "Абстэрна" }, "geometry": { "type": "Point", "coordinates": [ 27.395813, 55.6169056 ] } },
{ "type": "Feature", "properties": { "osm_id": "6503305649", "picnic_table": null, "toilets": null, "fireplace": null, "website": null, "fee": null, "description": null, "name": null }, "geometry": { "type": "Point", "coordinates": [ 26.7188251, 53.957023 ] } },
{ "type": "Feature", "properties": { "osm_id": "6503305650", "picnic_table": null, "toilets": null, "fireplace": null, "website": null, "fee": null, "description": null, "name": null }, "geometry": { "type": "Point", "coordinates": [ 26.7103279, 53.9609178 ] } },
{ "type": "Feature", "properties": { "osm_id": "6520310189", "picnic_table": null, "toilets": null, "fireplace": null, "website": null, "fee": null, "description": null, "name": null }, "geometry": { "type": "Point", "coordinates": [ 26.6820095, 52.9443421 ] } },
{ "type": "Feature", "properties": { "osm_id": "6520668103", "picnic_table": null, "toilets": null, "fireplace": null, "website": null, "fee": null, "description": null, "name": null }, "geometry": { "type": "Point", "coordinates": [ 27.6115501, 54.0747598 ] } },
{ "type": "Feature", "properties": { "osm_id": "6520668104", "picnic_table": null, "toilets": null, "fireplace": null, "website": null, "fee": null, "description": null, "name": null }, "geometry": { "type": "Point", "coordinates": [ 27.6130682, 54.0743097 ] } },
{ "type": "Feature", "properties": { "osm_id": "6520762189", "picnic_table": null, "toilets": null, "fireplace": null, "website": null, "fee": null, "description": null, "name": null }, "geometry": { "type": "Point", "coordinates": [ 27.5863938, 54.061418 ] } },
{ "type": "Feature", "properties": { "osm_id": "6520762225", "picnic_table": null, "toilets": null, "fireplace": null, "website": null, "fee": null, "description": null, "name": null }, "geometry": { "type": "Point", "coordinates": [ 27.6040989, 54.0629882 ] } },
{ "type": "Feature", "properties": { "osm_id": "6533314085", "picnic_table": null, "toilets": null, "fireplace": null, "website": null, "fee": null, "description": null, "name": "Хутар Вайцюшкі" }, "geometry": { "type": "Point", "coordinates": [ 25.5690636, 53.7894778 ] } },
{ "type": "Feature", "properties": { "osm_id": "6592917248", "picnic_table": null, "toilets": null, "fireplace": null, "website": null, "fee": null, "description": null, "name": null }, "geometry": { "type": "Point", "coordinates": [ 23.7544818, 53.878941 ] } },
{ "type": "Feature", "properties": { "osm_id": "6596338875", "picnic_table": null, "toilets": null, "fireplace": null, "website": null, "fee": null, "description": null, "name": null }, "geometry": { "type": "Point", "coordinates": [ 28.5878907, 53.9233506 ] } },
{ "type": "Feature", "properties": { "osm_id": "6615734309", "picnic_table": null, "toilets": null, "fireplace": null, "website": null, "fee": null, "description": null, "name": null }, "geometry": { "type": "Point", "coordinates": [ 26.962131, 53.8600269 ] } },
{ "type": "Feature", "properties": { "osm_id": "6615734310", "picnic_table": null, "toilets": null, "fireplace": null, "website": null, "fee": null, "description": null, "name": null }, "geometry": { "type": "Point", "coordinates": [ 26.9610339, 53.8600696 ] } },
{ "type": "Feature", "properties": { "osm_id": "6615734312", "picnic_table": null, "toilets": null, "fireplace": null, "website": null, "fee": null, "description": null, "name": null }, "geometry": { "type": "Point", "coordinates": [ 26.9641453, 53.8606248 ] } },
{ "type": "Feature", "properties": { "osm_id": "6615788212", "picnic_table": null, "toilets": null, "fireplace": null, "website": null, "fee": null, "description": null, "name": null }, "geometry": { "type": "Point", "coordinates": [ 26.6992852, 53.9136586 ] } },
{ "type": "Feature", "properties": { "osm_id": "6615788356", "picnic_table": null, "toilets": null, "fireplace": null, "website": null, "fee": null, "description": null, "name": null }, "geometry": { "type": "Point", "coordinates": [ 26.708225, 53.9084038 ] } },
{ "type": "Feature", "properties": { "osm_id": "6615788373", "picnic_table": null, "toilets": null, "fireplace": null, "website": null, "fee": null, "description": null, "name": null }, "geometry": { "type": "Point", "coordinates": [ 26.7037994, 53.9098463 ] } },
{ "type": "Feature", "properties": { "osm_id": "6615915204", "picnic_table": null, "toilets": null, "fireplace": "yes", "website": "https://volozhin.gov.by/ru/ekonomika/pridorozhnyj-servis", "fee": "yes", "description": null, "name": "Урочище Марчеха" }, "geometry": { "type": "Point", "coordinates": [ 26.4142965, 54.0129851 ] } },
{ "type": "Feature", "properties": { "osm_id": "6636997687", "picnic_table": null, "toilets": null, "fireplace": null, "website": null, "fee": null, "description": null, "name": "Кемпінг" }, "geometry": { "type": "Point", "coordinates": [ 29.3209749, 53.8585655 ] } },
{ "type": "Feature", "properties": { "osm_id": "6673686701", "picnic_table": null, "toilets": null, "fireplace": null, "website": null, "fee": null, "description": null, "name": "кемпінг" }, "geometry": { "type": "Point", "coordinates": [ 28.3853562, 56.0497046 ] } },
{ "type": "Feature", "properties": { "osm_id": "6708493090", "picnic_table": null, "toilets": null, "fireplace": null, "website": null, "fee": "yes", "description": "(заказная на 8чел.)", "name": "т / с Абсерваторыя-1" }, "geometry": { "type": "Point", "coordinates": [ 27.0620888, 55.7166957 ] } },
{ "type": "Feature", "properties": { "osm_id": "6708493105", "picnic_table": null, "toilets": null, "fireplace": null, "website": "https://www.braslavpark.by", "fee": "yes", "description": null, "name": "т/с Пратока (заказная на 8чал.)" }, "geometry": { "type": "Point", "coordinates": [ 27.0888929, 55.7170756 ] } },
{ "type": "Feature", "properties": { "osm_id": "6708493106", "picnic_table": null, "toilets": null, "fireplace": null, "website": "https://www.braslavpark.by", "fee": "yes", "description": null, "name": "т/с Хутарок (заказная на 8чал.)" }, "geometry": { "type": "Point", "coordinates": [ 27.0885274, 55.7187579 ] } },
{ "type": "Feature", "properties": { "osm_id": "6708784980", "picnic_table": null, "toilets": null, "fireplace": null, "website": null, "fee": null, "description": null, "name": null }, "geometry": { "type": "Point", "coordinates": [ 27.3616219, 55.5968379 ] } },
{ "type": "Feature", "properties": { "osm_id": "6708784981", "picnic_table": null, "toilets": null, "fireplace": null, "website": null, "fee": null, "description": null, "name": "Прасторны" }, "geometry": { "type": "Point", "coordinates": [ 27.3535377, 55.6099537 ] } },
{ "type": "Feature", "properties": { "osm_id": "6708785249", "picnic_table": null, "toilets": null, "fireplace": null, "website": null, "fee": null, "description": null, "name": null }, "geometry": { "type": "Point", "coordinates": [ 27.3469877, 55.6185033 ] } },
{ "type": "Feature", "properties": { "osm_id": "6742444585", "picnic_table": null, "toilets": null, "fireplace": null, "website": null, "fee": null, "description": null, "name": "КААЛ кемпінг" }, "geometry": { "type": "Point", "coordinates": [ 26.7918043, 54.6341032 ] } },
{ "type": "Feature", "properties": { "osm_id": "6749686685", "picnic_table": null, "toilets": null, "fireplace": null, "website": null, "fee": null, "description": null, "name": "Логава Яшчарак" }, "geometry": { "type": "Point", "coordinates": [ 28.6306662, 54.8675462 ] } },
{ "type": "Feature", "properties": { "osm_id": "6770290401", "picnic_table": null, "toilets": null, "fireplace": null, "website": null, "fee": "no", "description": null, "name": null }, "geometry": { "type": "Point", "coordinates": [ 26.1799216, 54.50557 ] } },
{ "type": "Feature", "properties": { "osm_id": "6770448516", "picnic_table": null, "toilets": null, "fireplace": null, "website": null, "fee": null, "description": null, "name": null }, "geometry": { "type": "Point", "coordinates": [ 26.2096159, 54.5815307 ] } },
{ "type": "Feature", "properties": { "osm_id": "6781548722", "picnic_table": null, "toilets": null, "fireplace": null, "website": null, "fee": "no", "description": null, "name": null }, "geometry": { "type": "Point", "coordinates": [ 27.8577916, 55.5382944 ] } },
{ "type": "Feature", "properties": { "osm_id": "6782018031", "picnic_table": null, "toilets": null, "fireplace": null, "website": null, "fee": null, "description": null, "name": "т/с Ельна-3" }, "geometry": { "type": "Point", "coordinates": [ 27.0085798, 55.6715086 ] } },
{ "type": "Feature", "properties": { "osm_id": "6783757885", "picnic_table": null, "toilets": null, "fireplace": null, "website": null, "fee": null, "description": null, "name": "Бурлева-1" }, "geometry": { "type": "Point", "coordinates": [ 28.4466769, 55.9633828 ] } },
{ "type": "Feature", "properties": { "osm_id": "6789305386", "picnic_table": null, "toilets": null, "fireplace": null, "website": null, "fee": null, "description": null, "name": "Каймінскае" }, "geometry": { "type": "Point", "coordinates": [ 26.210767, 54.8891536 ] } },
{ "type": "Feature", "properties": { "osm_id": "6847328686", "picnic_table": null, "toilets": null, "fireplace": null, "website": null, "fee": null, "description": null, "name": "1" }, "geometry": { "type": "Point", "coordinates": [ 30.4338469, 53.8456563 ] } },
{ "type": "Feature", "properties": { "osm_id": "6897015085", "picnic_table": null, "toilets": null, "fireplace": null, "website": null, "fee": null, "description": null, "name": "камень" }, "geometry": { "type": "Point", "coordinates": [ 27.0478968, 55.7159823 ] } },
{ "type": "Feature", "properties": { "osm_id": "7011676186", "picnic_table": null, "toilets": null, "fireplace": null, "website": "https://vk.com/pbmolot", "fee": null, "description": null, "name": "Пэйнтбольны клуб МолаТ" }, "geometry": { "type": "Point", "coordinates": [ 29.2861539, 52.0930534 ] } },
{ "type": "Feature", "properties": { "osm_id": "7247410888", "picnic_table": null, "toilets": null, "fireplace": null, "website": null, "fee": null, "description": null, "name": "На Берштах" }, "geometry": { "type": "Point", "coordinates": [ 24.3559628, 53.8664185 ] } },
{ "type": "Feature", "properties": { "osm_id": "7247410889", "picnic_table": null, "toilets": null, "fireplace": null, "website": null, "fee": null, "description": null, "name": "За рэчкай" }, "geometry": { "type": "Point", "coordinates": [ 24.3637801, 53.8663735 ] } },
{ "type": "Feature", "properties": { "osm_id": "7247410890", "picnic_table": null, "toilets": null, "fireplace": null, "website": null, "fee": null, "description": null, "name": "Бераставіца (Смалакурня)" }, "geometry": { "type": "Point", "coordinates": [ 24.3722123, 53.8546872 ] } },
{ "type": "Feature", "properties": { "osm_id": "7259178661", "picnic_table": null, "toilets": null, "fireplace": null, "website": null, "fee": null, "description": null, "name": null }, "geometry": { "type": "Point", "coordinates": [ 27.3494822, 55.5854398 ] } },
{ "type": "Feature", "properties": { "osm_id": "7259178662", "picnic_table": null, "toilets": null, "fireplace": null, "website": null, "fee": null, "description": null, "name": null }, "geometry": { "type": "Point", "coordinates": [ 27.3528618, 55.5830598 ] } },
{ "type": "Feature", "properties": { "osm_id": "7259178663", "picnic_table": null, "toilets": null, "fireplace": null, "website": null, "fee": null, "description": null, "name": null }, "geometry": { "type": "Point", "coordinates": [ 27.3505658, 55.5822199 ] } },
{ "type": "Feature", "properties": { "osm_id": "7260124960", "picnic_table": null, "toilets": null, "fireplace": null, "website": null, "fee": null, "description": null, "name": null }, "geometry": { "type": "Point", "coordinates": [ 27.426711, 55.5818757 ] } },
{ "type": "Feature", "properties": { "osm_id": "7260128522", "picnic_table": null, "toilets": null, "fireplace": null, "website": null, "fee": null, "description": null, "name": null }, "geometry": { "type": "Point", "coordinates": [ 27.4022157, 55.576551 ] } },
{ "type": "Feature", "properties": { "osm_id": "7260128538", "picnic_table": null, "toilets": null, "fireplace": null, "website": null, "fee": null, "description": null, "name": "Так сабе" }, "geometry": { "type": "Point", "coordinates": [ 27.3990226, 55.5762826 ] } },
{ "type": "Feature", "properties": { "osm_id": "7267153073", "picnic_table": null, "toilets": null, "fireplace": null, "website": null, "fee": null, "description": null, "name": null }, "geometry": { "type": "Point", "coordinates": [ 26.8435559, 53.3947432 ] } },
{ "type": "Feature", "properties": { "osm_id": "7267153074", "picnic_table": null, "toilets": null, "fireplace": null, "website": null, "fee": null, "description": null, "name": null }, "geometry": { "type": "Point", "coordinates": [ 26.8448031, 53.3947432 ] } },
{ "type": "Feature", "properties": { "osm_id": "7267153075", "picnic_table": null, "toilets": null, "fireplace": null, "website": null, "fee": null, "description": null, "name": null }, "geometry": { "type": "Point", "coordinates": [ 26.8458572, 53.3943849 ] } },
{ "type": "Feature", "properties": { "osm_id": "7267153076", "picnic_table": null, "toilets": null, "fireplace": null, "website": null, "fee": null, "description": null, "name": null }, "geometry": { "type": "Point", "coordinates": [ 26.8469864, 53.3934253 ] } },
{ "type": "Feature", "properties": { "osm_id": "7267153416", "picnic_table": null, "toilets": null, "fireplace": null, "website": null, "fee": null, "description": null, "name": null }, "geometry": { "type": "Point", "coordinates": [ 26.8192416, 53.4245887 ] } },
{ "type": "Feature", "properties": { "osm_id": "7278210867", "picnic_table": null, "toilets": null, "fireplace": null, "website": null, "fee": null, "description": null, "name": null }, "geometry": { "type": "Point", "coordinates": [ 26.6158336, 53.5182019 ] } },
{ "type": "Feature", "properties": { "osm_id": "7466882621", "picnic_table": null, "toilets": null, "fireplace": null, "website": null, "fee": null, "description": null, "name": "Добрае месца для стаянкі з намётамі" }, "geometry": { "type": "Point", "coordinates": [ 26.4226701, 53.8552739 ] } },
{ "type": "Feature", "properties": { "osm_id": "7470071785", "picnic_table": null, "toilets": null, "fireplace": null, "website": null, "fee": null, "description": null, "name": null }, "geometry": { "type": "Point", "coordinates": [ 26.7021129, 53.9610193 ] } },
{ "type": "Feature", "properties": { "osm_id": "7473701385", "picnic_table": null, "toilets": null, "fireplace": null, "website": null, "fee": null, "description": null, "name": null }, "geometry": { "type": "Point", "coordinates": [ 27.2367752, 54.3271215 ] } },
{ "type": "Feature", "properties": { "osm_id": "7476862991", "picnic_table": null, "toilets": null, "fireplace": null, "website": null, "fee": null, "description": null, "name": "Лешкава" }, "geometry": { "type": "Point", "coordinates": [ 27.9771856, 55.6971837 ] } },
{ "type": "Feature", "properties": { "osm_id": "7523363285", "picnic_table": null, "toilets": null, "fireplace": null, "website": null, "fee": null, "description": null, "name": "Кемпінг з лазняй" }, "geometry": { "type": "Point", "coordinates": [ 26.9316652, 53.9813266 ] } },
{ "type": "Feature", "properties": { "osm_id": "7528457518", "picnic_table": null, "toilets": null, "fireplace": null, "website": null, "fee": null, "description": null, "name": "Chechevichi Resort" }, "geometry": { "type": "Point", "coordinates": [ 29.8699321, 53.5148285 ] } },
{ "type": "Feature", "properties": { "osm_id": "7601582444", "picnic_table": null, "toilets": null, "fireplace": null, "website": null, "fee": null, "description": "Места под палатки, коттеджи. Путевка приобретается в гостинице в Лесковичи", "name": "Платная паркоўка" }, "geometry": { "type": "Point", "coordinates": [ 28.2108223, 52.1140256 ] } },
{ "type": "Feature", "properties": { "osm_id": "7603438993", "picnic_table": "yes", "toilets": null, "fireplace": "yes", "website": null, "fee": "no", "description": null, "name": null }, "geometry": { "type": "Point", "coordinates": [ 27.716474, 53.9771244 ] } },
{ "type": "Feature", "properties": { "osm_id": "7606152775", "picnic_table": null, "toilets": null, "fireplace": null, "website": null, "fee": null, "description": null, "name": "Месца для кэмпінгу" }, "geometry": { "type": "Point", "coordinates": [ 27.0154249, 52.5489737 ] } },
{ "type": "Feature", "properties": { "osm_id": "7611008985", "picnic_table": null, "toilets": null, "fireplace": null, "website": null, "fee": null, "description": null, "name": null }, "geometry": { "type": "Point", "coordinates": [ 26.9629521, 53.9822468 ] } },
{ "type": "Feature", "properties": { "osm_id": "7611181409", "picnic_table": null, "toilets": null, "fireplace": null, "website": null, "fee": null, "description": "Для бронирования обращаться в Телеханы", "name": "Платнае месца для стаянкі" }, "geometry": { "type": "Point", "coordinates": [ 25.8637816, 52.627919 ] } },
{ "type": "Feature", "properties": { "osm_id": "7614038120", "picnic_table": null, "toilets": null, "fireplace": null, "website": null, "fee": null, "description": null, "name": "Платная стаянка Плянта" }, "geometry": { "type": "Point", "coordinates": [ 23.7812503, 52.5759867 ] } },
{ "type": "Feature", "properties": { "osm_id": "7622877929", "picnic_table": null, "toilets": null, "fireplace": null, "website": "https://vk.com/moto.rezervation", "fee": "yes", "description": null, "name": "Экстрым-сядзіба «МотаРэзервацыя»" }, "geometry": { "type": "Point", "coordinates": [ 29.8729557, 54.8362099 ] } },
{ "type": "Feature", "properties": { "osm_id": "7629933586", "picnic_table": null, "toilets": null, "fireplace": null, "website": null, "fee": null, "description": null, "name": "Бераг Дняпра (зямлянка)" }, "geometry": { "type": "Point", "coordinates": [ 30.3833345, 54.0735272 ] } },
{ "type": "Feature", "properties": { "osm_id": "7642014086", "picnic_table": null, "toilets": null, "fireplace": null, "website": null, "fee": null, "description": null, "name": "Лагер «Сплаў НХ»" }, "geometry": { "type": "Point", "coordinates": [ 26.715376, 53.9573501 ] } },
{ "type": "Feature", "properties": { "osm_id": "7643329985", "picnic_table": null, "toilets": null, "fireplace": null, "website": null, "fee": null, "description": null, "name": "Кемпінг у полі" }, "geometry": { "type": "Point", "coordinates": [ 26.5052098, 53.571293 ] } },
{ "type": "Feature", "properties": { "osm_id": "7671428085", "picnic_table": null, "toilets": "yes", "fireplace": null, "website": "https://braslavpark.by/otdykh-i-turizm/turstoyanki/zakazniye/dolgoe/", "fee": "yes", "description": null, "name": "Заказная турыстычная стаянка Рыбацкая" }, "geometry": { "type": "Point", "coordinates": [ 26.7740604, 55.4676279 ] } },
{ "type": "Feature", "properties": { "osm_id": "7673801785", "picnic_table": null, "toilets": null, "fireplace": null, "website": null, "fee": null, "description": null, "name": "Кемпінг на рацэ" }, "geometry": { "type": "Point", "coordinates": [ 25.5756566, 53.4218086 ] } },
{ "type": "Feature", "properties": { "osm_id": "7677968080", "picnic_table": null, "toilets": null, "fireplace": null, "website": null, "fee": null, "description": null, "name": null }, "geometry": { "type": "Point", "coordinates": [ 26.2378836, 52.9747916 ] } },
{ "type": "Feature", "properties": { "osm_id": "7677968081", "picnic_table": null, "toilets": null, "fireplace": null, "website": null, "fee": null, "description": null, "name": null }, "geometry": { "type": "Point", "coordinates": [ 26.2388921, 52.973002 ] } },
{ "type": "Feature", "properties": { "osm_id": "7677968082", "picnic_table": null, "toilets": null, "fireplace": null, "website": null, "fee": null, "description": null, "name": null }, "geometry": { "type": "Point", "coordinates": [ 26.2509325, 52.9656264 ] } },
{ "type": "Feature", "properties": { "osm_id": "7677968083", "picnic_table": null, "toilets": null, "fireplace": null, "website": null, "fee": null, "description": null, "name": null }, "geometry": { "type": "Point", "coordinates": [ 26.2521636, 52.9603111 ] } },
{ "type": "Feature", "properties": { "osm_id": "7677968084", "picnic_table": null, "toilets": null, "fireplace": null, "website": null, "fee": null, "description": null, "name": null }, "geometry": { "type": "Point", "coordinates": [ 26.2522227, 52.9597796 ] } },
{ "type": "Feature", "properties": { "osm_id": "7677969299", "picnic_table": null, "toilets": null, "fireplace": null, "website": null, "fee": null, "description": null, "name": null }, "geometry": { "type": "Point", "coordinates": [ 26.2369823, 52.967258 ] } },
{ "type": "Feature", "properties": { "osm_id": "7678234147", "picnic_table": null, "toilets": null, "fireplace": null, "website": null, "fee": null, "description": null, "name": null }, "geometry": { "type": "Point", "coordinates": [ 26.2061174, 53.0183747 ] } },
{ "type": "Feature", "properties": { "osm_id": "7679151285", "picnic_table": null, "toilets": null, "fireplace": null, "website": null, "fee": null, "description": null, "name": null }, "geometry": { "type": "Point", "coordinates": [ 28.746373, 52.2450117 ] } },
{ "type": "Feature", "properties": { "osm_id": "7683709685", "picnic_table": null, "toilets": null, "fireplace": null, "website": null, "fee": null, "description": null, "name": "LAAKy camp" }, "geometry": { "type": "Point", "coordinates": [ 26.7129288, 54.5723234 ] } },
{ "type": "Feature", "properties": { "osm_id": "7684909585", "picnic_table": null, "toilets": null, "fireplace": null, "website": null, "fee": null, "description": null, "name": null }, "geometry": { "type": "Point", "coordinates": [ 26.2536717, 53.6385503 ] } },
{ "type": "Feature", "properties": { "osm_id": "7685317186", "picnic_table": null, "toilets": null, "fireplace": null, "website": null, "fee": null, "description": null, "name": null }, "geometry": { "type": "Point", "coordinates": [ 26.6426876, 54.0096625 ] } },
{ "type": "Feature", "properties": { "osm_id": "7722900786", "picnic_table": null, "toilets": null, "fireplace": null, "website": null, "fee": "yes", "description": null, "name": "Заказная турыстычная стаянка Паляўнічая" }, "geometry": { "type": "Point", "coordinates": [ 26.7681858, 55.47189 ] } },
{ "type": "Feature", "properties": { "osm_id": "7727054449", "picnic_table": null, "toilets": null, "fireplace": null, "website": null, "fee": null, "description": null, "name": null }, "geometry": { "type": "Point", "coordinates": [ 26.8505144, 55.1522431 ] } },
{ "type": "Feature", "properties": { "osm_id": "7731330781", "picnic_table": null, "toilets": null, "fireplace": null, "website": null, "fee": null, "description": null, "name": "Стаянка №5" }, "geometry": { "type": "Point", "coordinates": [ 26.7099757, 55.6773308 ] } },
{ "type": "Feature", "properties": { "osm_id": "7731330782", "picnic_table": null, "toilets": null, "fireplace": null, "website": null, "fee": null, "description": null, "name": "Стаянка №3" }, "geometry": { "type": "Point", "coordinates": [ 26.7106328, 55.678043 ] } },
{ "type": "Feature", "properties": { "osm_id": "7731330783", "picnic_table": null, "toilets": null, "fireplace": null, "website": null, "fee": null, "description": null, "name": "Стаянка №4" }, "geometry": { "type": "Point", "coordinates": [ 26.7092357, 55.6762372 ] } },
{ "type": "Feature", "properties": { "osm_id": "7731330784", "picnic_table": null, "toilets": null, "fireplace": null, "website": null, "fee": null, "description": null, "name": "Стаянка №2" }, "geometry": { "type": "Point", "coordinates": [ 26.7103969, 55.6838264 ] } },
{ "type": "Feature", "properties": { "osm_id": "7733295986", "picnic_table": null, "toilets": null, "fireplace": null, "website": null, "fee": null, "description": null, "name": "Залатая горка" }, "geometry": { "type": "Point", "coordinates": [ 26.4613309, 54.8083184 ] } },
{ "type": "Feature", "properties": { "osm_id": "7741340870", "picnic_table": null, "toilets": "yes", "fireplace": null, "website": "https://mereyacamp.by/", "fee": "yes", "description": "Инфраструктура для ночевок и бытового обслуживания автодомов (слив, залив воды, чистка биотуалета).", "name": "Мярэя" }, "geometry": { "type": "Point", "coordinates": [ 27.3520687, 55.6252403 ] } },
{ "type": "Feature", "properties": { "osm_id": "7756586968", "picnic_table": null, "toilets": null, "fireplace": null, "website": null, "fee": null, "description": null, "name": "Лагер" }, "geometry": { "type": "Point", "coordinates": [ 30.2443542, 52.5507698 ] } },
{ "type": "Feature", "properties": { "osm_id": "7757346742", "picnic_table": null, "toilets": null, "fireplace": null, "website": null, "fee": null, "description": null, "name": null }, "geometry": { "type": "Point", "coordinates": [ 28.6402065, 53.3538911 ] } },
{ "type": "Feature", "properties": { "osm_id": "7764258731", "picnic_table": null, "toilets": null, "fireplace": null, "website": null, "fee": null, "description": null, "name": null }, "geometry": { "type": "Point", "coordinates": [ 26.8527829, 55.1522054 ] } },
{ "type": "Feature", "properties": { "osm_id": "7764258734", "picnic_table": null, "toilets": null, "fireplace": null, "website": null, "fee": null, "description": null, "name": null }, "geometry": { "type": "Point", "coordinates": [ 26.8522345, 55.1543354 ] } },
{ "type": "Feature", "properties": { "osm_id": "7814530192", "picnic_table": null, "toilets": null, "fireplace": null, "website": null, "fee": "yes", "description": null, "name": "Каля возера" }, "geometry": { "type": "Point", "coordinates": [ 25.9101922, 53.4392364 ] } },
{ "type": "Feature", "properties": { "osm_id": "7825819865", "picnic_table": null, "toilets": null, "fireplace": null, "website": null, "fee": null, "description": null, "name": null }, "geometry": { "type": "Point", "coordinates": [ 25.9217965, 53.4393456 ] } },
{ "type": "Feature", "properties": { "osm_id": "7825820187", "picnic_table": null, "toilets": null, "fireplace": null, "website": null, "fee": null, "description": null, "name": null }, "geometry": { "type": "Point", "coordinates": [ 26.3066819, 53.7099009 ] } },
{ "type": "Feature", "properties": { "osm_id": "7825820723", "picnic_table": null, "toilets": null, "fireplace": null, "website": null, "fee": null, "description": null, "name": null }, "geometry": { "type": "Point", "coordinates": [ 25.9273724, 53.4316307 ] } },
{ "type": "Feature", "properties": { "osm_id": "7841367285", "picnic_table": null, "toilets": null, "fireplace": null, "website": null, "fee": null, "description": null, "name": "Каля Дуба" }, "geometry": { "type": "Point", "coordinates": [ 25.4251075, 52.9888575 ] } },
{ "type": "Feature", "properties": { "osm_id": "7841367287", "picnic_table": null, "toilets": null, "fireplace": null, "website": null, "fee": null, "description": null, "name": "Затока" }, "geometry": { "type": "Point", "coordinates": [ 25.4461307, 52.980487 ] } },
{ "type": "Feature", "properties": { "osm_id": "7841367385", "picnic_table": null, "toilets": null, "fireplace": null, "website": null, "fee": null, "description": null, "name": "Рачны" }, "geometry": { "type": "Point", "coordinates": [ 25.4639323, 52.9781796 ] } },
{ "type": "Feature", "properties": { "osm_id": "7844982186", "picnic_table": null, "toilets": null, "fireplace": null, "website": null, "fee": null, "description": null, "name": "месца для кэмпінгу з лазняй на беразе ракі" }, "geometry": { "type": "Point", "coordinates": [ 26.2935129, 54.7600475 ] } },
{ "type": "Feature", "properties": { "osm_id": "7855482103", "picnic_table": null, "toilets": null, "fireplace": null, "website": null, "fee": null, "description": null, "name": "Партызанская крыніца" }, "geometry": { "type": "Point", "coordinates": [ 30.9776075, 52.3205301 ] } },
{ "type": "Feature", "properties": { "osm_id": "7855523409", "picnic_table": null, "toilets": null, "fireplace": null, "website": null, "fee": null, "description": null, "name": null }, "geometry": { "type": "Point", "coordinates": [ 24.8846022, 53.4123384 ] } },
{ "type": "Feature", "properties": { "osm_id": "7899875786", "picnic_table": null, "toilets": null, "fireplace": null, "website": null, "fee": null, "description": "Место для палатки", "name": null }, "geometry": { "type": "Point", "coordinates": [ 26.7560142, 53.4541042 ] } },
{ "type": "Feature", "properties": { "osm_id": "7899878085", "picnic_table": null, "toilets": null, "fireplace": null, "website": null, "fee": null, "description": null, "name": "Платны кемпінг" }, "geometry": { "type": "Point", "coordinates": [ 27.1255381, 54.4941409 ] } },
{ "type": "Feature", "properties": { "osm_id": "7902333287", "picnic_table": null, "toilets": null, "fireplace": null, "website": null, "fee": null, "description": null, "name": "Цэнтр" }, "geometry": { "type": "Point", "coordinates": [ 25.6803424, 52.9873199 ] } },
{ "type": "Feature", "properties": { "osm_id": "7902333386", "picnic_table": null, "toilets": null, "fireplace": null, "website": null, "fee": null, "description": null, "name": "Беларусь" }, "geometry": { "type": "Point", "coordinates": [ 25.3182984, 53.0122196 ] } },
{ "type": "Feature", "properties": { "osm_id": "7902333685", "picnic_table": null, "toilets": null, "fireplace": null, "website": null, "fee": null, "description": null, "name": "Лясны" }, "geometry": { "type": "Point", "coordinates": [ 25.6787729, 52.9863865 ] } },
{ "type": "Feature", "properties": { "osm_id": "7905339179", "picnic_table": null, "toilets": null, "fireplace": null, "website": null, "fee": "no", "description": null, "name": null }, "geometry": { "type": "Point", "coordinates": [ 28.7604498, 53.9550354 ] } },
{ "type": "Feature", "properties": { "osm_id": "7935259841", "picnic_table": null, "toilets": null, "fireplace": null, "website": null, "fee": null, "description": null, "name": "Стаянка на востраве Ду" }, "geometry": { "type": "Point", "coordinates": [ 28.1190839, 56.0390298 ] } },
{ "type": "Feature", "properties": { "osm_id": "7959012227", "picnic_table": null, "toilets": null, "fireplace": null, "website": "https://braslavpark.by/otdykh-i-turizm/turstoyanki/zakazniye/medvedno/", "fee": "yes", "description": null, "name": "Лясная (заказная тур. стаянка)" }, "geometry": { "type": "Point", "coordinates": [ 27.2449561, 55.7643634 ] } },
{ "type": "Feature", "properties": { "osm_id": "7959028741", "picnic_table": null, "toilets": null, "fireplace": null, "website": "https://braslavpark.by/otdykh-i-turizm/turstoyanki/zakazniye/medvedno/", "fee": "yes", "description": null, "name": "Мядзведна-2 (заказная тур. стаянка)" }, "geometry": { "type": "Point", "coordinates": [ 27.2467467, 55.7661236 ] } },
{ "type": "Feature", "properties": { "osm_id": "7959038893", "picnic_table": null, "toilets": null, "fireplace": null, "website": "https://braslavpark.by/otdykh-i-turizm/turstoyanki/zakazniye/medvedno/", "fee": "yes", "description": null, "name": "Два рыбакі (заказная тур. стаянка)" }, "geometry": { "type": "Point", "coordinates": [ 27.2382624, 55.7613473 ] } },
{ "type": "Feature", "properties": { "osm_id": "7959047913", "picnic_table": null, "toilets": null, "fireplace": null, "website": "https://braslavpark.by/otdykh-i-turizm/turstoyanki/zakazniye/medvedno/", "fee": "yes", "description": null, "name": "Мядзведна-3 (заказная тур. стаянка)" }, "geometry": { "type": "Point", "coordinates": [ 27.2505474, 55.7690627 ] } },
{ "type": "Feature", "properties": { "osm_id": "7988168685", "picnic_table": null, "toilets": null, "fireplace": null, "website": null, "fee": null, "description": "отличный вид на Неман, место для ночлега, каменистый бережок", "name": null }, "geometry": { "type": "Point", "coordinates": [ 25.9161576, 53.8136594 ] } },
{ "type": "Feature", "properties": { "osm_id": "8232118619", "picnic_table": null, "toilets": null, "fireplace": null, "website": null, "fee": null, "description": null, "name": "Беседкі" }, "geometry": { "type": "Point", "coordinates": [ 28.3830525, 54.2874544 ] } },
{ "type": "Feature", "properties": { "osm_id": "8232118718", "picnic_table": null, "toilets": null, "fireplace": null, "website": null, "fee": null, "description": null, "name": null }, "geometry": { "type": "Point", "coordinates": [ 28.3816959, 54.2894173 ] } },
{ "type": "Feature", "properties": { "osm_id": "8232118818", "picnic_table": null, "toilets": null, "fireplace": null, "website": null, "fee": null, "description": null, "name": null }, "geometry": { "type": "Point", "coordinates": [ 27.2016627, 54.103339 ] } },
{ "type": "Feature", "properties": { "osm_id": "8300249164", "picnic_table": null, "toilets": null, "fireplace": null, "website": null, "fee": null, "description": null, "name": null }, "geometry": { "type": "Point", "coordinates": [ 26.0796623, 52.1037499 ] } },
{ "type": "Feature", "properties": { "osm_id": "8305165731", "picnic_table": null, "toilets": null, "fireplace": null, "website": null, "fee": "no", "description": null, "name": "Стаянка на беразе р. Ісы" }, "geometry": { "type": "Point", "coordinates": [ 25.472552, 53.1408647 ] } },