{
"type": "FeatureCollection",
"name": "campings_seed",
"crs": { "type": "name", "properties": { "name": "urn:ogc:def:crs:OGC:1.3:CRS84" } },
"features": [
{ "type": "Feature", "properties": { "osm_id": "243024186", "picnic_table": null, "toilets": null, "fireplace": null, "website": null, "fee": null, "description": null, "name": null }, "geometry": { "type": "Point", "coordinates": [ 28.75955, 55.32165 ] } },
{ "type": "Feature", "properties": { "osm_id": "255020580", "picnic_table": null, "toilets": null, "fireplace": null, "website": null, "fee": null, "description": null, "name": "база Віндсерфінгу" }, "geometry": { "type": "Point", "coordinates": [ 27.3679205, 53.9545385 ] } },
{ "type": "Feature", "properties": { "osm_id": "306065066", "picnic_table": null, "toilets": null, "fireplace": null, "website": null, "fee": null, "description": null, "name": "Дубы" }, "geometry": { "type": "Point", "coordinates": [ 27.15777, 55.69287 ] } },
{ "type": "Feature", "properties": { "osm_id": "306065079", "picnic_table": null, "toilets": null, "fireplace": null, "website": null, "fee": "yes", "description": "Вместимость: 40 человек  Стоимость: 4,00 BYN с человека в сутки (3,50 BYN при оплате за 11 и более дней) . Береговая линия с песчаным дном. Дрова необходимо приобретать заранее.  Размещение разрешено без предварительной брони. ", "name": "Будзілы" }, "geometry": { "type": "Point", "coordinates": [ 27.0962237, 55.716412 ] } },
{ "type": "Feature", "properties": { "osm_id": "306065100", "picnic_table": null, "toilets": null, "fireplace": null, "website": null, "fee": null, "description": null, "name": "Вушына" }, "geometry": { "type": "Point", "coordinates": [ 27.08482, 55.59468 ] } },
{ "type": "Feature", "properties": { "osm_id": "306065129", "picnic_table": null, "toilets": null, "fireplace": null, "website": "http://braslavpark.by/rybalks/pokupka-putevok-online", "fee": null, "description": null, "name": "т/с Ручай" }, "geometry": { "type": "Point", "coordinates": [ 27.1025537, 55.7606612 ] } },
{ "type": "Feature", "properties": { "osm_id": "306065171", "picnic_table": null, "toilets": null, "fireplace": null, "website": null, "fee": null, "description": null, "name": "Пешчная" }, "geometry": { "type": "Point", "coordinates": [ 27.03993, 55.58009 ] } },
{ "type": "Feature", "properties": { "osm_id": "306065182", "picnic_table": null, "toilets": null, "fireplace": null, "website": null, "fee": null, "description": null, "name": "Дукельская Лука" }, "geometry": { "type": "Point", "coordinates": [ 27.01753, 55.58601 ] } },
{ "type": "Feature", "properties": { "osm_id": "306065184", "picnic_table": null, "toilets": null, "fireplace": null, "website": null, "fee": null, "description": null, "name": "Панцялееўскі Рог стаянка агульнага тыпу" }, "geometry": { "type": "Point", "coordinates": [ 27.0238918, 55.685484 ] } },
{ "type": "Feature", "properties": { "osm_id": "306065219", "picnic_table": null, "toilets": null, "fireplace": null, "website": null, "fee": null, "description": null, "name": "т/с Болта (заказная на 10чал.)" }, "geometry": { "type": "Point", "coordinates": [ 26.96345, 55.59975 ] } },
{ "type": "Feature", "properties": { "osm_id": "306066023", "picnic_table": null, "toilets": null, "fireplace": null, "website": null, "fee": null, "description": null, "name": "Аўтакемпінг «Нарач»" }, "geometry": { "type": "Point", "coordinates": [ 26.7238473, 54.8267743 ] } },
{ "type": "Feature", "properties": { "osm_id": "306066826", "picnic_table": null, "toilets": null, "fireplace": null, "website": null, "fee": null, "description": null, "name": "Летнік" }, "geometry": { "type": "Point", "coordinates": [ 29.3727538, 55.7196063 ] } },
{ "type": "Feature", "properties": { "osm_id": "427733167", "picnic_table": null, "toilets": null, "fireplace": null, "website": null, "fee": null, "description": null, "name": "Лясная Казка" }, "geometry": { "type": "Point", "coordinates": [ 23.7954028, 53.6812657 ] } },
{ "type": "Feature", "properties": { "osm_id": "747013229", "picnic_table": null, "toilets": null, "fireplace": null, "website": null, "fee": null, "description": null, "name": null }, "geometry": { "type": "Point", "coordinates": [ 27.2131484, 55.7678384 ] } },
{ "type": "Feature", "properties": { "osm_id": "1266956438", "picnic_table": null, "toilets": null, "fireplace": null, "website": null, "fee": null, "description": null, "name": null }, "geometry": { "type": "Point", "coordinates": [ 27.8303974, 53.9666559 ] } },
{ "type": "Feature", "properties": { "osm_id": "1544242694", "picnic_table": null, "toilets": null, "fireplace": null, "website": null, "fee": null, "description": null, "name": "Антанізберг" }, "geometry": { "type": "Point", "coordinates": [ 26.7410905, 54.9063496 ] } },
{ "type": "Feature", "properties": { "osm_id": "1544242699", "picnic_table": null, "toilets": null, "fireplace": "yes", "website": null, "fee": null, "description": null, "name": "Глыбокі Ручай" }, "geometry": { "type": "Point", "coordinates": [ 26.5862377, 54.9494577 ] } },
{ "type": "Feature", "properties": { "osm_id": "1544242709", "picnic_table": null, "toilets": null, "fireplace": null, "website": null, "fee": "yes", "description": null, "name": "Турыстычная стаянка «Цюкшы-2»" }, "geometry": { "type": "Point", "coordinates": [ 26.607356, 54.9726187 ] } },
{ "type": "Feature", "properties": { "osm_id": "1544242710", "picnic_table": null, "toilets": null, "fireplace": null, "website": null, "fee": null, "description": null, "name": "Качаргі" }, "geometry": { "type": "Point", "coordinates": [ 26.9093503, 54.8449379 ] } },
{ "type": "Feature", "properties": { "osm_id": "1544242713", "picnic_table": null, "toilets": null, "fireplace": null, "website": null, "fee": "yes", "description": null, "name": "Турыстычная стаянка «Белае»" }, "geometry": { "type": "Point", "coordinates": [ 26.8661708, 54.8370229 ] } },
{ "type": "Feature", "properties": { "osm_id": "1544242717", "picnic_table": null, "toilets": null, "fireplace": null, "website": null, "fee": "yes", "description": null, "name": "Турыстычная стаянка «Цюкшы-3»" }, "geometry": { "type": "Point", "coordinates": [ 26.6163748, 54.9686706 ] } },
{ "type": "Feature", "properties": { "osm_id": "1738536359", "picnic_table": null, "toilets": null, "fireplace": null, "website": null, "fee": null, "description": null, "name": "РУП ВА «Беларуснафта». Турзлёт." }, "geometry": { "type": "Point", "coordinates": [ 30.2364209, 52.5500456 ] } },
{ "type": "Feature", "properties": { "osm_id": "1792002205", "picnic_table": null, "toilets": null, "fireplace": null, "website": null, "fee": null, "description": null, "name": null }, "geometry": { "type": "Point", "coordinates": [ 27.7675695, 54.4433837 ] } },
{ "type": "Feature", "properties": { "osm_id": "1800500936", "picnic_table": null, "toilets": null, "fireplace": null, "website": null, "fee": null, "description": null, "name": null }, "geometry": { "type": "Point", "coordinates": [ 30.6896915, 53.8333988 ] } },
{ "type": "Feature", "properties": { "osm_id": "1844355640", "picnic_table": null, "toilets": null, "fireplace": null, "website": null, "fee": null, "description": null, "name": "База адпачынку «Браслаўскія азёры»" }, "geometry": { "type": "Point", "coordinates": [ 27.0726875, 55.6155044 ] } },
{ "type": "Feature", "properties": { "osm_id": "2365915846", "picnic_table": null, "toilets": null, "fireplace": null, "website": null, "fee": null, "description": null, "name": "Аграсядзіба «Вікторыя»" }, "geometry": { "type": "Point", "coordinates": [ 27.796866, 54.426082 ] } },
{ "type": "Feature", "properties": { "osm_id": "2405177519", "picnic_table": null, "toilets": null, "fireplace": null, "website": null, "fee": null, "description": null, "name": "Турстаянка «Турцыя»" }, "geometry": { "type": "Point", "coordinates": [ 27.0790439, 55.711668 ] } },
{ "type": "Feature", "properties": { "osm_id": "2406904864", "picnic_table": null, "toilets": null, "fireplace": null, "website": null, "fee": null, "description": null, "name": "стаянка Шчара" }, "geometry": { "type": "Point", "coordinates": [ 24.7867682, 53.424956 ] } },
{ "type": "Feature", "properties": { "osm_id": "2500362498", "picnic_table": null, "toilets": null, "fireplace": null, "website": null, "fee": null, "description": null, "name": "Лагер пілігрымаў" }, "geometry": { "type": "Point", "coordinates": [ 27.4417018, 54.7935241 ] } },
{ "type": "Feature", "properties": { "osm_id": "2961332935", "picnic_table": null, "toilets": null, "fireplace": null, "website": null, "fee": null, "description": null, "name": "Турстаянка «Юбілейная»" }, "geometry": { "type": "Point", "coordinates": [ 27.0386624, 55.7162767 ] } },
{ "type": "Feature", "properties": { "osm_id": "2961332939", "picnic_table": null, "toilets": null, "fireplace": null, "website": "https://www.braslavpark.by", "fee": "yes", "description": null, "name": "т/с Выселкі (заказная на 8чал.)" }, "geometry": { "type": "Point", "coordinates": [ 27.0861208, 55.7160596 ] } },
{ "type": "Feature", "properties": { "osm_id": "3498619651", "picnic_table": null, "toilets": null, "fireplace": null, "website": null, "fee": null, "description": null, "name": "Днепрык" }, "geometry": { "type": "Point", "coordinates": [ 30.1289355, 52.396981 ] } },
{ "type": "Feature", "properties": { "osm_id": "3572081047", "picnic_table": null, "toilets": null, "fireplace": null, "website": null, "fee": null, "description": null, "name": "Месца для адпачынку" }, "geometry": { "type": "Point", "coordinates": [ 30.1194247, 53.0719714 ] } },
{ "type": "Feature", "properties": { "osm_id": "3635442557", "picnic_table": null, "toilets": null, "fireplace": null, "website": null, "fee": null, "description": null, "name": null }, "geometry": { "type": "Point", "coordinates": [ 27.6620249, 54.0740433 ] } },
{ "type": "Feature", "properties": { "osm_id": "3664359104", "picnic_table": null, "toilets": null, "fireplace": null, "website": "https://braslavpark.by/otdykh-i-turizm/turstoyanki/zakazniye/albenovskoe/", "fee": "yes", "description": null, "name": "Альбенаўская" }, "geometry": { "type": "Point", "coordinates": [ 26.8829473, 55.4227683 ] } },
{ "type": "Feature", "properties": { "osm_id": "3664474516", "picnic_table": null, "toilets": null, "fireplace": null, "website": "https://braslavpark.by/otdykh-i-turizm/turstoyanki/zakazniye/albenovskoe/", "fee": "yes", "description": null, "name": "Бекешкі" }, "geometry": { "type": "Point", "coordinates": [ 26.8761412, 55.4242745 ] } },
{ "type": "Feature", "properties": { "osm_id": "3664474517", "picnic_table": null, "toilets": null, "fireplace": null, "website": "https://braslavpark.by/by/otdykh-i-turizm/turstoyanki/zakazniye/albenovskoe/", "fee": "yes", "description": "(заказная на 12чел.)", "name": "Дубок" }, "geometry": { "type": "Point", "coordinates": [ 26.8147562, 55.4216661 ] } },
{ "type": "Feature", "properties": { "osm_id": "3664474518", "picnic_table": null, "toilets": null, "fireplace": null, "website": null, "fee": null, "description": "(заказная на 8чел.)", "name": "т/с Прылаўка 1" }, "geometry": { "type": "Point", "coordinates": [ 26.7993027, 55.3982742 ] } },
{ "type": "Feature", "properties": { "osm_id": "3664474523", "picnic_table": null, "toilets": null, "fireplace": null, "website": null, "fee": null, "description": null, "name": "т/с Барок (заказная на 8чал.)" }, "geometry": { "type": "Point", "coordinates": [ 27.0177002, 55.680557 ] } },
{ "type": "Feature", "properties": { "osm_id": "3664477238", "picnic_table": null, "toilets": null, "fireplace": null, "website": "https://www.braslavpark.by", "fee": "yes", "description": null, "name": "т/с Перавалока (заказная на 8чал.)" }, "geometry": { "type": "Point", "coordinates": [ 27.0875851, 55.7217913 ] } },
{ "type": "Feature", "properties": { "osm_id": "3664477240", "picnic_table": null, "toilets": null, "fireplace": null, "website": null, "fee": null, "description": null, "name": "т/с Ельна-1" }, "geometry": { "type": "Point", "coordinates": [ 27.012038, 55.6700656 ] } },
{ "type": "Feature", "properties": { "osm_id": "3664477241", "picnic_table": null, "toilets": null, "fireplace": null, "website": null, "fee": null, "description": null, "name": "т/с Ельна-2" }, "geometry": { "type": "Point", "coordinates": [ 27.0135655, 55.6709384 ] } },
{ "type": "Feature", "properties": { "osm_id": "3664477242", "picnic_table": null, "toilets": null, "fireplace": null, "website": null, "fee": "yes", "description": "(заказная на 8чел.)", "name": "т / с Абсерваторыя-2" }, "geometry": { "type": "Point", "coordinates": [ 27.0625923, 55.7166018 ] } },
{ "type": "Feature", "properties": { "osm_id": "3664477244", "picnic_table": null, "toilets": null, "fireplace": null, "website": null, "fee": null, "description": null, "name": "т/с Чарнішкі (заказная на 25 чал.)" }, "geometry": { "type": "Point", "coordinates": [ 27.0153586, 55.7121665 ] } },
{ "type": "Feature", "properties": { "osm_id": "3664477246", "picnic_table": null, "toilets": null, "fireplace": null, "website": null, "fee": null, "description": null, "name": "Бярозы-1 (заказная на 10чал.)" }, "geometry": { "type": "Point", "coordinates": [ 27.0742398, 55.7084235 ] } },
{ "type": "Feature", "properties": { "osm_id": "3664477247", "picnic_table": null, "toilets": null, "fireplace": null, "website": null, "fee": null, "description": null, "name": "Бярозы-2 (заказная на 8чал.)" }, "geometry": { "type": "Point", "coordinates": [ 27.0744115, 55.7086653 ] } },
{ "type": "Feature", "properties": { "osm_id": "3664477252", "picnic_table": null, "toilets": null, "fireplace": null, "website": null, "fee": null, "description": null, "name": "т/с Кірылаўка (заказная на 10чал.)" }, "geometry": { "type": "Point", "coordinates": [ 27.1074295, 55.7279777 ] } },
{ "type": "Feature", "properties": { "osm_id": "3664477253", "picnic_table": null, "toilets": null, "fireplace": null, "website": "https://braslavpark.by/otdykh-i-turizm/turstoyanki/zakazniye/medvedno/", "fee": "yes", "description": null, "name": "Мядзведна-1 (заказная тур. стаянка)" }, "geometry": { "type": "Point", "coordinates": [ 27.2379752, 55.7652806 ] } },
{ "type": "Feature", "properties": { "osm_id": "3664477255", "picnic_table": null, "toilets": null, "fireplace": null, "website": null, "fee": null, "description": null, "name": "т/с Туніс (заказная на 8чал.)" }, "geometry": { "type": "Point", "coordinates": [ 27.0803754, 55.7113029 ] } },
{ "type": "Feature", "properties": { "osm_id": "3664477256", "picnic_table": null, "toilets": null, "fireplace": null, "website": "https://braslavpark.by/otdykh-i-turizm/turstoyanki/zakazniye/uklya/#Kariby_uk", "fee": "yes", "description": "Заказная туристическая стоянка расположена на поляне рядом с сосновым лесом у озера Укля. Оснащение: беседка, баня, кострище с лавками, лестница и пирсом для подхода к воде, навес для дров, туалет и мусоросборник.", "name": "Карыбы (заказная турстаянка)" }, "geometry": { "type": "Point", "coordinates": [ 27.3411521, 55.6003726 ] } },
{ "type": "Feature", "properties": { "osm_id": "3664477257", "picnic_table": null, "toilets": null, "fireplace": null, "website": "https://braslavpark.by/otdykh-i-turizm/turstoyanki/zakazniye/uklya/#Marok_uk", "fee": "yes", "description": "Заказная туристическая стоянка расположена на возвышенности у озера Укля в смешанном лесу (в зоне видимости турстоянка Ямайка) Оснащена: беседкой, баней, мангалом, навесом для дров, туалетом, кострищем с лавками.", "name": "Марока (заказная турстаянка)" }, "geometry": { "type": "Point", "coordinates": [ 27.3451561, 55.6001973 ] } },
{ "type": "Feature", "properties": { "osm_id": "3664477258", "picnic_table": null, "toilets": null, "fireplace": null, "website": "https://braslavpark.by/otdykh-i-turizm/turstoyanki/zakazniye/uklya/#Miami_uk", "fee": "yes", "description": "Заказная туристическая стоянка расположена на берегу озера Укля, по берегу растут деревья, рядом полянка (в зоне видимости турстоянка Фиджи) Оснащена: беседкой, навесом для дров, туалетом, кострищем с лавками.", "name": "Маямі (заказная турстаянка)" }, "geometry": { "type": "Point", "coordinates": [ 27.3273037, 55.6018843 ] } },
{ "type": "Feature", "properties": { "osm_id": "3664477259", "picnic_table": null, "toilets": null, "fireplace": null, "website": "https://braslavpark.by/otdykh-i-turizm/turstoyanki/zakazniye/uklya/#Fiji_uk", "fee": "yes", "description": "Заказная туристическая стоянка расположена на полянке берега озера Укля, по берегу растут деревья (в зоне видимости турстоянка Майами) Оснащена: беседкой, навесом для дров, туалетом, кострищем с лавками.", "name": "Фіджы (заказная турстаянка на 8чал.)" }, "geometry": { "type": "Point", "coordinates": [ 27.3254414, 55.6019451 ] } },
{ "type": "Feature", "properties": { "osm_id": "3664477260", "picnic_table": null, "toilets": null, "fireplace": null, "website": "https://braslavpark.by/otdykh-i-turizm/turstoyanki/zakazniye/uklya/#Jamayka_uk", "fee": "yes", "description": "Заказная туристическая стоянка расположена на возвышенности у озера Укля в смешанном лесу.(в зоне видимости турстоянка Марокко) Оснащена: беседкой, навесом для дров, туалетом, кострищем с лавками.", "name": "т/с Ямайка (заказная на 8чал.)" }, "geometry": { "type": "Point", "coordinates": [ 27.3441856, 55.600209 ] } },
{ "type": "Feature", "properties": { "osm_id": "3664477261", "picnic_table": null, "toilets": null, "fireplace": null, "website": null, "fee": null, "description": null, "name": "т/с Прылаўка-2" }, "geometry": { "type": "Point", "coordinates": [ 26.7982062, 55.3934563 ] } },
{ "type": "Feature", "properties": { "osm_id": "3675574056", "picnic_table": null, "toilets": null, "fireplace": null, "website": null, "fee": null, "description": null, "name": null }, "geometry": { "type": "Point", "coordinates": [ 30.2888178, 53.7788892 ] } },
{ "type": "Feature", "properties": { "osm_id": "3688475268", "picnic_table": null, "toilets": null, "fireplace": null, "website": null, "fee": null, "description": null, "name": "т/с Стругалапы" }, "geometry": { "type": "Point", "coordinates": [ 26.8215698, 54.9357028 ] } },
{ "type": "Feature", "properties": { "osm_id": "3688480583", "picnic_table": null, "toilets": null, "fireplace": null, "website": null, "fee": null, "description": null, "name": "т/с Расохі" }, "geometry": { "type": "Point", "coordinates": [ 26.8715548, 54.9676233 ] } },
{ "type": "Feature", "properties": { "osm_id": "3688489222", "picnic_table": null, "toilets": null, "fireplace": null, "website": null, "fee": null, "description": null, "name": "Канькова" }, "geometry": { "type": "Point", "coordinates": [ 26.5536541, 54.7080076 ] } },
{ "type": "Feature", "properties": { "osm_id": "3688491447", "picnic_table": null, "toilets": null, "fireplace": null, "website": null, "fee": null, "description": null, "name": "Турыстычная стаянка «Балдук»" }, "geometry": { "type": "Point", "coordinates": [ 26.4097861, 54.9746946 ] } },
{ "type": "Feature", "properties": { "osm_id": "3688496584", "picnic_table": null, "toilets": null, "fireplace": null, "website": null, "fee": null, "description": null, "name": "т/с Шырокі Роў" }, "geometry": { "type": "Point", "coordinates": [ 26.5849813, 54.7118611 ] } },
{ "type": "Feature", "properties": { "osm_id": "3688503325", "picnic_table": null, "toilets": null, "fireplace": null, "website": null, "fee": null, "description": null, "name": "т/с Воўчына" }, "geometry": { "type": "Point", "coordinates": [ 26.8690295, 55.0063585 ] } },
{ "type": "Feature", "properties": { "osm_id": "3889057071", "picnic_table": null, "toilets": null, "fireplace": null, "website": null, "fee": null, "description": null, "name": null }, "geometry": { "type": "Point", "coordinates": [ 26.328497, 53.7127175 ] } },
{ "type": "Feature", "properties": { "osm_id": "4032719558", "picnic_table": null, "toilets": null, "fireplace": null, "website": null, "fee": null, "description": "Место для палатки", "name": null }, "geometry": { "type": "Point", "coordinates": [ 23.7939407, 53.7427216 ] } },
{ "type": "Feature", "properties": { "osm_id": "4063074444", "picnic_table": null, "toilets": null, "fireplace": null, "website": null, "fee": null, "description": null, "name": null }, "geometry": { "type": "Point", "coordinates": [ 29.7783351, 54.1644566 ] } },
{ "type": "Feature", "properties": { "osm_id": "4171748689", "picnic_table": null, "toilets": null, "fireplace": null, "website": null, "fee": null, "description": null, "name": null }, "geometry": { "type": "Point", "coordinates": [ 26.8559041, 54.4073565 ] } },
{ "type": "Feature", "properties": { "osm_id": "4214384098", "picnic_table": null, "toilets": null, "fireplace": null, "website": null, "fee": null, "description": null, "name": "дамба" }, "geometry": { "type": "Point", "coordinates": [ 27.5011013, 52.7364815 ] } },
{ "type": "Feature", "properties": { "osm_id": "4221907600", "picnic_table": null, "toilets": null, "fireplace": null, "website": null, "fee": null, "description": null, "name": "Кемпінг" }, "geometry": { "type": "Point", "coordinates": [ 28.5411328, 55.115021 ] } },
{ "type": "Feature", "properties": { "osm_id": "4223987295", "picnic_table": null, "toilets": null, "fireplace": null, "website": null, "fee": null, "description": null, "name": null }, "geometry": { "type": "Point", "coordinates": [ 23.8557336, 53.8063157 ] } },
{ "type": "Feature", "properties": { "osm_id": "4226872389", "picnic_table": null, "toilets": null, "fireplace": null, "website": null, "fee": null, "description": null, "name": null }, "geometry": { "type": "Point", "coordinates": [ 31.1559194, 52.4886287 ] } },
{ "type": "Feature", "properties": { "osm_id": "4234002795", "picnic_table": null, "toilets": null, "fireplace": null, "website": null, "fee": null, "description": null, "name": "Месца сустрэчы" }, "geometry": { "type": "Point", "coordinates": [ 31.1809748, 52.4866922 ] } },
{ "type": "Feature", "properties": { "osm_id": "4305154364", "picnic_table": null, "toilets": null, "fireplace": null, "website": null, "fee": null, "description": null, "name": null }, "geometry": { "type": "Point", "coordinates": [ 25.6061381, 53.1669296 ] } },
{ "type": "Feature", "properties": { "osm_id": "4310392889", "picnic_table": null, "toilets": null, "fireplace": null, "website": null, "fee": null, "description": null, "name": "с/т Атаздароўе" }, "geometry": { "type": "Point", "coordinates": [ 27.9095962, 53.9925596 ] } },
{ "type": "Feature", "properties": { "osm_id": "4315900193", "picnic_table": null, "toilets": null, "fireplace": null, "website": null, "fee": null, "description": null, "name": "Рыбалка і месца для фота" }, "geometry": { "type": "Point", "coordinates": [ 31.1586399, 52.4975993 ] } },
{ "type": "Feature", "properties": { "osm_id": "4326599997", "picnic_table": null, "toilets": null, "fireplace": null, "website": "https://drive-gomel.by/", "fee": null, "description": null, "name": "Пэйнтбольны клуб «Драйв»" }, "geometry": { "type": "Point", "coordinates": [ 30.8827306, 52.5378303 ] } },
{ "type": "Feature", "properties": { "osm_id": "4327808489", "picnic_table": null, "toilets": null, "fireplace": null, "website": null, "fee": null, "description": null, "name": null }, "geometry": { "type": "Point", "coordinates": [ 27.5813204, 54.2148038 ] } },
{ "type": "Feature", "properties": { "osm_id": "4329424674", "picnic_table": null, "toilets": null, "fireplace": null, "website": null, "fee": null, "description": null, "name": null }, "geometry": { "type": "Point", "coordinates": [ 29.6318865, 55.2474405 ] } },
{ "type": "Feature", "properties": { "osm_id": "4341763989", "picnic_table": null, "toilets": null, "fireplace": null, "website": null, "fee": null, "description": null, "name": "Лугаўцы" }, "geometry": { "type": "Point", "coordinates": [ 30.6313843, 54.5521737 ] } },
{ "type": "Feature", "properties": { "osm_id": "4349743266", "picnic_table": null, "toilets": null, "fireplace": null, "website": null, "fee": null, "description": null, "name": "Турыстычная паляна" }, "geometry": { "type": "Point", "coordinates": [ 26.7067805, 53.9640884 ] } },
{ "type": "Feature", "properties": { "osm_id": "4354515591", "picnic_table": null, "toilets": null, "fireplace": null, "website": null, "fee": null, "description": null, "name": "т/с Міжазёрная (заказная на 8 чал.)" }, "geometry": { "type": "Point", "coordinates": [ 27.0966486, 55.7405491 ] } },
{ "type": "Feature", "properties": { "osm_id": "4359221992", "picnic_table": null, "toilets": null, "fireplace": null, "website": null, "fee": null, "description": null, "name": "Карʼер" }, "geometry": { "type": "Point", "coordinates": [ 29.0365264, 54.6373627 ] } },
{ "type": "Feature", "properties": { "osm_id": "4366655491", "picnic_table": null, "toilets": null, "fireplace": null, "website": null, "fee": null, "description": null, "name": null }, "geometry": { "type": "Point", "coordinates": [ 28.8868603, 55.3500294 ] } },
{ "type": "Feature", "properties": { "osm_id": "4366664390", "picnic_table": null, "toilets": null, "fireplace": null, "website": null, "fee": null, "description": null, "name": null }, "geometry": { "type": "Point", "coordinates": [ 28.8843178, 55.3491121 ] } },
{ "type": "Feature", "properties": { "osm_id": "4366664391", "picnic_table": null, "toilets": null, "fireplace": null, "website": null, "fee": null, "description": null, "name": null }, "geometry": { "type": "Point", "coordinates": [ 28.8798429, 55.3464931 ] } },
{ "type": "Feature", "properties": { "osm_id": "4366710590", "picnic_table": null, "toilets": null, "fireplace": null, "website": null, "fee": null, "description": null, "name": null }, "geometry": { "type": "Point", "coordinates": [ 28.8409113, 55.2942185 ] } },
{ "type": "Feature", "properties": { "osm_id": "4366710591", "picnic_table": null, "toilets": null, "fireplace": null, "website": null, "fee": null, "description": null, "name": null }, "geometry": { "type": "Point", "coordinates": [ 28.8860868, 55.3505237 ] } },
{ "type": "Feature", "properties": { "osm_id": "4373588189", "picnic_table": null, "toilets": null, "fireplace": null, "website": null, "fee": null, "description": null, "name": null }, "geometry": { "type": "Point", "coordinates": [ 27.2275263, 54.3318767 ] } },
{ "type": "Feature", "properties": { "osm_id": "4373730301", "picnic_table": null, "toilets": null, "fireplace": null, "website": null, "fee": null, "description": null, "name": null }, "geometry": { "type": "Point", "coordinates": [ 27.0989357, 54.4766981 ] } },
{ "type": "Feature", "properties": { "osm_id": "4398874101", "picnic_table": null, "toilets": null, "fireplace": null, "website": null, "fee": null, "description": null, "name": "Палаткава-аздараўленчы лагер «Крыніца»" }, "geometry": { "type": "Point", "coordinates": [ 27.2120576, 54.4919808 ] } },
{ "type": "Feature", "properties": { "osm_id": "4399573096", "picnic_table": null, "toilets": null, "fireplace": null, "website": null, "fee": null, "description": null, "name": "зона адпачынку(столік,лавачкі)" }, "geometry": { "type": "Point", "coordinates": [ 23.9639314, 53.6453543 ] } },
{ "type": "Feature", "properties": { "osm_id": "4427456892", "picnic_table": null, "toilets": null, "fireplace": null, "website": null, "fee": null, "description": null, "name": null }, "geometry": { "type": "Point", "coordinates": [ 26.7095082, 54.8474343 ] } },
{ "type": "Feature", "properties": { "osm_id": "4485271004", "picnic_table": null, "toilets": null, "fireplace": null, "website": null, "fee": null, "description": null, "name": null }, "geometry": { "type": "Point", "coordinates": [ 30.0363918, 55.5141828 ] } },
{ "type": "Feature", "properties": { "osm_id": "4535645793", "picnic_table": null, "toilets": null, "fireplace": null, "website": null, "fee": null, "description": null, "name": null }, "geometry": { "type": "Point", "coordinates": [ 30.3950052, 54.4405925 ] } },
{ "type": "Feature", "properties": { "osm_id": "4535645794", "picnic_table": null, "toilets": null, "fireplace": null, "website": null, "fee": null, "description": null, "name": null }, "geometry": { "type": "Point", "coordinates": [ 30.3869653, 54.4570434 ] } },
{ "type": "Feature", "properties": { "osm_id": "4563406806", "picnic_table": null, "toilets": null, "fireplace": null, "website": null, "fee": null, "description": null, "name": null }, "geometry": { "type": "Point", "coordinates": [ 31.1338233, 52.4862932 ] } },
{ "type": "Feature", "properties": { "osm_id": "4582305656", "picnic_table": null, "toilets": null, "fireplace": null, "website": null, "fee": null, "description": null, "name": null }, "geometry": { "type": "Point", "coordinates": [ 29.1945362, 54.5240828 ] } },
{ "type": "Feature", "properties": { "osm_id": "4603754295", "picnic_table": null, "toilets": null, "fireplace": null, "website": null, "fee": null, "description": null, "name": "Сежа" }, "geometry": { "type": "Point", "coordinates": [ 26.9765269, 53.4366947 ] } },
{ "type": "Feature", "properties": { "osm_id": "4623226989", "picnic_table": null, "toilets": null, "fireplace": null, "website": null, "fee": null, "description": null, "name": "Дом рыбака" }, "geometry": { "type": "Point", "coordinates": [ 31.0548555, 52.4319271 ] } },
{ "type": "Feature", "properties": { "osm_id": "4674502789", "picnic_table": null, "toilets": null, "fireplace": null, "website": null, "fee": null, "description": null, "name": "парк сямейнага адпачынку Лап-ландыя" }, "geometry": { "type": "Point", "coordinates": [ 27.7793664, 52.7589409 ] } },
{ "type": "Feature", "properties": { "osm_id": "4781033423", "picnic_table": null, "toilets": null, "fireplace": null, "website": null, "fee": null, "description": null, "name": "Рыбалка" }, "geometry": { "type": "Point", "coordinates": [ 26.9012208, 51.9057003 ] } },
{ "type": "Feature", "properties": { "osm_id": "4787657106", "picnic_table": null, "toilets": null, "fireplace": null, "website": null, "fee": null, "description": null, "name": null }, "geometry": { "type": "Point", "coordinates": [ 27.2399727, 54.1927666 ] } },
{ "type": "Feature", "properties": { "osm_id": "13053926883", "picnic_table": null, "toilets": "yes", "fireplace": null, "website": "https://itourist.by/reserve/sinsha/meh/", "fee": "yes", "description": null, "name": "Мех" }, "geometry": { "type": "Point", "coordinates": [ 29.3863108, 55.8964934 ] } },
{ "type": "Feature", "properties": { "osm_id": "13068769578", "picnic_table": null, "toilets": null, "fireplace": null, "website": null, "fee": null, "description": null, "name": null }, "geometry": { "type": "Point", "coordinates": [ 28.5278758, 55.6305277 ] } }
]
}
